Country,City,AccentCity,Region,Population,Latitude,Longitude,Test3
jp,a,A,47,,26.606111,127.923889,26.606111
jp,abamachi,Abamachi,27,,32.75,129.95,32.75
jp,abana,Abana,27,,32.75,129.95,32.75
jp,abashiri,Abashiri,12,42498,44.019722,144.258611,44.019722
jp,abasiri,Abasiri,12,,44.019722,144.258611,44.019722
jp,abatu,Abatu,12,,42.553889,140.757222,42.553889
jp,abe,Abe,39,,33.783333,134.633333,33.783333
jp,abe,Abe,47,,26.537778,128.088333,26.537778
jp,abeta,Abeta,23,,34.6,136.066667,34.6
jp,abi,Abi,39,,33.783333,134.633333,33.783333
jp,abika,Abika,19,,35.568611,139.218611,35.568611
jp,abiko,Abiko,4,131774,35.866667,140.016667,35.866667
jp,abira,Abira,12,,42.816667,141.833333,42.816667
jp,abo,Abo,23,,34.666667,136.166667,34.666667
jp,aboshi,Aboshi,13,,34.783333,134.583333,34.783333
jp,abu,Abu,39,,33.783333,134.633333,33.783333
jp,abu,Abu,45,,34.5,131.466667,34.5
jp,abu,Abu,47,,26.537778,128.088333,26.537778
jp,abukanai,Abukanai,12,,44.2,143.183333,44.2
jp,aburakawa,Aburakawa,3,,40.85,140.7,40.85
jp,aburatsu,Aburatsu,12,,44.019722,144.258611,44.019722
jp,aburatsu,Aburatsu,25,,31.533333,131.35,31.533333
jp,abuta,Abuta,12,,42.553889,140.757222,42.553889
jp,abuura,Abuura,39,,33.783333,134.633333,33.783333
jp,achigaya,Achigaya,37,,34.833333,138.2,34.833333
jp,achisu,Achisu,45,,34.003333,131.354444,34.003333
jp,ada,Ada,47,,26.745125,128.315458,26.745125
jp,adakai,Adakai,36,,35.433333,133.133333,35.433333
jp,adakaya,Adakaya,36,,35.433333,133.133333,35.433333
jp,adami,Adami,8,,37.483333,140.266667,37.483333
jp,adaniya,Adaniya,47,,26.290556,127.786111,26.290556
jp,adanniya,Adanniya,47,,26.290556,127.786111,26.290556
jp,adashika,Adashika,23,,33.933333,136.15,33.933333
jp,adasika,Adasika,23,,33.933333,136.15,33.933333
jp,adawa,Adawa,23,,33.8,136.033333,33.8
jp,adigasawa,Adigasawa,3,,40.774444,140.203056,40.774444
jp,adino,Adino,31,,34.466667,133.8,34.466667
jp,aeba,Aeba,35,,35.366667,136.033333,35.366667
jp,aenae,Aenae,12,,42.054722,139.442222,42.054722
jp,afuso,Afuso,47,,26.492778,127.885556,26.492778
jp,afusu,Afusu,47,,26.492778,127.885556,26.492778
jp,afutoromanai,Afutoromanai,12,,45.2,141.316667,45.2
jp,afuwa,Afuwa,47,,26.715883,128.284681,26.715883
jp,afuwacha,Afuwacha,47,,26.242778,127.721944,26.242778
jp,afuwari,Afuwari,47,,26.170556,127.340278,26.170556
jp,aga,Aga,11,,34.233333,132.6,34.233333
jp,aga,Aga,41,,35.35,133.333333,35.35
jp,agacho,Agacho,11,,34.233333,132.6,34.233333
jp,agamachi,Agamachi,11,,34.233333,132.6,34.233333
jp,agami,Agami,27,,34.15,129.266667,34.15
jp,agano,Agano,29,,37.773916,139.221922,37.773916
jp,aganuma,Aganuma,8,,37.366667,140.433333,37.366667
jp,agare,Agare,18,,28.316667,129.933333,28.316667
jp,agarie,Agarie,47,,26.583611,127.985278,26.583611
jp,agari-e-kami,Agari-e-kami,47,,26.7075,127.803889,26.7075
jp,agariemae,Agariemae,47,,26.7075,127.803889,26.7075
jp,agarieue,Agarieue,47,,26.717222,127.806111,26.717222
jp,agarii,Agarii,47,,26.583611,127.985278,26.583611
jp,agari-ie,Agari-Ie,47,,26.717222,127.806111,26.717222
jp,agarii-mae,Agarii-mae,47,,26.7075,127.803889,26.7075
jp,agarii-mee,Agarii-mee,47,,26.7075,127.803889,26.7075
jp,agarisuji,Agarisuji,47,,24.237424,124.015556,24.237424
jp,agariuebaru,Agariuebaru,47,,26.685881,127.930658,26.685881
jp,agariuibaru,Agariuibaru,47,,26.685881,127.930658,26.685881
jp,agawa,Agawa,45,,34.333333,130.933333,34.333333
jp,age,Age,2,,39.333333,140.45,39.333333
jp,ageda,Ageda,47,,26.334444,127.806111,26.334444
jp,agei,Agei,41,,35.45,133.85,35.45
jp,ageki,Ageki,23,,35.15,136.516667,35.15
jp,agematsu,Agematsu,26,,35.783333,137.7,35.783333
jp,agena,Agena,47,,26.370556,127.851111,26.370556
jp,ageno,Ageno,6,,35.71,136.093333,35.71
jp,agenosho,Agenosho,45,,33.883333,132.266667,33.883333
jp,agenoshomachi,Agenoshomachi,45,,33.883333,132.266667,33.883333
jp,agenoura,Agenoura,45,,33.9,132.283333,33.9
jp,ageo,Ageo,34,219405,35.969722,139.588611,35.969722
jp,ageomura,Ageomura,34,,35.969722,139.588611,35.969722
jp,agida,Agida,47,,26.334444,127.806111,26.334444
jp,aginaa,Aginaa,47,,26.370556,127.851111,26.370556
jp,agina,Agina,47,,26.370556,127.851111,26.370556
jp,ago,Ago,43,,33.6,135.483333,33.6
jp,aguchi,Aguchi,31,,35.016667,133.633333,35.016667
jp,aguni,Aguni,47,,26.576389,127.221389,26.576389
jp,agura,Agura,20,,33.516667,134.166667,33.516667
jp,aha,Aha,47,,26.715883,128.284681,26.715883
jp,ahacha,Ahacha,47,,26.242778,127.721944,26.242778
jp,ahare,Ahare,47,,26.170556,127.340278,26.170556
jp,aharen,Aharen,47,,26.170556,127.340278,26.170556
jp,aho,Aho,23,,34.666667,136.166667,34.666667
jp,ahuso,Ahuso,47,,26.492778,127.885556,26.492778
jp,ai,Ai,36,,35.133333,132.95,35.133333
jp,aiba,Aiba,35,,35.366667,136.033333,35.366667
jp,aibetsu,Aibetsu,12,,43.9,142.583333,43.9
jp,aiboshima,Aiboshima,12,,42.483333,143.433333,42.483333
jp,aida,Aida,5,,34.165278,133.036389,34.165278
jp,aida,Aida,26,,36.35,138,36.35
jp,aidamari,Aidamari,12,,42.116667,140.016667,42.116667
jp,aidomari,Aidomari,3,,41.5,139.366667,41.5
jp,aidomari,Aidomari,12,,44.183333,145.333333,44.183333
jp,aiga,Aiga,23,,34.1,136.216667,34.1
jp,aigadani,Aigadani,23,,33.933333,136.1,33.933333
jp,aigatani,Aigatani,23,,33.933333,136.1,33.933333
jp,aihama,Aihama,4,,34.916667,139.816667,34.916667
jp,aihara,Aihara,19,,35.6,139.316667,35.6
jp,aika,Aika,36,,35.466667,132.95,35.466667
jp,aikamachi,Aikamachi,36,,35.466667,132.95,35.466667
jp,aikawa,Aikawa,6,,36.083333,136.033333,36.083333
jp,aikawa,Aikawa,16,,38.966667,141.216667,38.966667
jp,aikawa,Aikawa,24,,38.6,141.5,38.6
jp,aikawa,Aikawa,29,,38.033333,138.25,38.033333
jp,aimata,Aimata,10,,36.716667,138.9,36.716667
jp,aimi,Aimi,1,,35.033333,137.016667,35.033333
jp,aimoto,Aimoto,13,,34.966667,135.15,34.966667
jp,aimoto,Aimoto,42,,36.85,137.55,36.85
jp,aimoto-shin,Aimoto-shin,42,,36.866667,137.55,36.866667
jp,aino,Aino,27,,32.816667,130.15,32.816667
jp,ainohama,Ainohama,4,,34.916667,139.816667,34.916667
jp,ainokama,Ainokama,24,,38.124722,140.933333,38.124722
jp,ainonai,Ainonai,12,,43.791944,143.756111,43.791944
jp,ainono,Ainono,2,,39.266667,140.616667,39.266667
jp,ainoura,Ainoura,27,,33.2,129.65,33.2
jp,ainouracho,Ainouracho,27,,33.2,129.65,33.2
jp,ainoura-machi,Ainoura-machi,27,,33.2,129.65,33.2
jp,ainuma,Ainuma,12,,42.083333,140.066667,42.083333
jp,ainumanai,Ainumanai,12,,42.083333,140.066667,42.083333
jp,aioi,Aioi,12,,43.583333,143.983333,43.583333
jp,aioi,Aioi,13,32394,34.803611,134.468056,34.803611
jp,aioicho,Aioicho,27,,33.166667,129.716667,33.166667
jp,aioicho,Aioicho,37,,35.016667,138.483333,35.016667
jp,aioimachi,Aioimachi,37,,35.016667,138.483333,35.016667
jp,aioi-shi,Aioi-shi,13,,34.803611,134.468056,34.803611
jp,aioura,Aioura,45,,34,131.433333,34
jp,airakuen,Airakuen,47,,26.672778,128.018333,26.672778
jp,aire,Aire,27,,32.666667,130.3,32.666667
jp,aisai,Aisai,1,,35.163495,136.732218,35.163495
jp,aisari,Aisari,16,,39.25,141.116667,39.25
jp,aisaricho,Aisaricho,16,,39.25,141.116667,39.25
jp,aisarimachi,Aisarimachi,16,,39.25,141.116667,39.25
jp,aisarimatsu,Aisarimatsu,16,,39.25,141.116667,39.25
jp,aishima,Aishima,45,,34.5,131.283333,34.5
jp,aita,Aita,26,,36.35,138,36.35
jp,aitomari,Aitomari,3,,41.5,139.366667,41.5
jp,aitomari,Aitomari,12,,44.183333,145.333333,44.183333
jp,aitsu,Aitsu,21,,32.5,130.433333,32.5
jp,aiuchi,Aiuchi,3,,41.05,140.366667,41.05
jp,aiura,Aiura,27,,33.2,129.65,33.2
jp,aizan,Aizan,12,,43.85,142.7,43.85
jp,aizu,Aizu,8,,37.55,139.983333,37.55
jp,aizu,Aizu,21,,32.5,130.433333,32.5
jp,aizu-wakamatsu,Aizu-Wakamatsu,8,,37.491417,139.945456,37.491417
jp,aja,Aja,47,,26.237675,127.691361,26.237675
jp,aji,Aji,17,,34.383333,134.133333,34.383333
jp,aji,Aji,24,,38.266667,141.466667,38.266667
jp,ajigasawa,Ajigasawa,3,,40.774444,140.203056,40.774444
jp,ajihama,Ajihama,24,,38.266667,141.466667,38.266667
jp,ajiki,Ajiki,4,,35.833333,140.233333,35.833333
jp,ajima,Ajima,8,,37.2,139.766667,37.2
jp,ajima,Ajima,26,,35.516667,137.883333,35.516667
jp,ajimine,Ajimine,47,,26.2,127.65,26.2
jp,ajinnine,Ajinnine,47,,26.2,127.65,26.2
jp,ajino,Ajino,31,,34.466667,133.8,34.466667
jp,ajiro,Ajiro,5,,33.032972,132.404045,33.032972
jp,ajiro,Ajiro,27,,34.65,129.466667,34.65
jp,ajiro,Ajiro,37,,35.05,139.083333,35.05
jp,ajiro,Ajiro,41,,35.583333,134.3,35.583333
jp,ajirohama,Ajirohama,29,,38.005,139.253333,38.005
jp,ajisu,Ajisu,45,,34.003333,131.354444,34.003333
jp,aka,Aka,11,,34.233333,132.6,34.233333
jp,aka,Aka,47,,26.188056,127.273889,26.188056
jp,akabane,Akabane,1,,34.616667,137.2,34.616667
jp,akabane,Akabane,16,,39.266667,141.6,39.266667
jp,akabane,Akabane,21,,32.816667,131.183333,32.816667
jp,akabane,Akabane,40,,35.766667,139.716667,35.766667
jp,akabanemachi,Akabanemachi,40,,35.766667,139.716667,35.766667
jp,akabane-nishiku,Akabane-nishiku,1,,34.6,137.183333,34.6
jp,akabira,Akabira,12,14214,43.551389,142.053056,43.551389
jp,akadani,Akadani,25,,32.683333,131.2,32.683333
jp,akadomari,Akadomari,29,,37.866667,138.416667,37.866667
jp,akagami,Akagami,12,,41.466667,140.016667,41.466667
jp,akagawa,Akagawa,11,,34.816667,133.05,34.816667
jp,akagawa,Akagawa,12,,42.07,139.455,42.07
jp,akagina,Akagina,18,,28.45,129.683333,28.45
jp,akahane,Akahane,21,,32.816667,131.183333,32.816667
jp,akaho,Akaho,13,,34.75,134.4,34.75
jp,akaho,Akaho,26,,35.733333,137.933333,35.733333
jp,akai,Akai,24,,38.447233,141.233549,38.447233
jp,akai,Akai,34,,35.816667,139.75,35.816667
jp,akaigawa,Akaigawa,12,,43.083333,140.817222,43.083333
jp,akaike,Akaike,4,,35.8,140.45,35.8
jp,akaike,Akaike,7,,33.7,130.766667,33.7
jp,akaishi,Akaishi,3,,40.756111,140.168056,40.756111
jp,akaishi,Akaishi,12,,42.140278,139.52,42.140278
jp,akaishi,Akaishi,16,,39.366667,140.766667,39.366667
jp,akaishi,Akaishi,24,,38.209722,140.753056,38.209722
jp,akaishi,Akaishi,26,,36.983333,138.516667,36.983333
jp,akaishicho,Akaishicho,39,,33.983333,134.616667,33.983333
jp,akaishimachi,Akaishimachi,3,,40.75,140.166667,40.75
jp,akaisi,Akaisi,12,,42.140278,139.52,42.140278
jp,akaiwa,Akaiwa,12,,43.766667,141.366667,43.766667
jp,akaiwa,Akaiwa,34,,36.2,139.433333,36.2
jp,akakina,Akakina,18,,28.45,129.683333,28.45
jp,akakura,Akakura,29,,36.883333,138.183333,36.883333
jp,akakura,Akakura,38,,36.666667,139.45,36.666667
jp,akakura,Akakura,44,,38.707222,140.551944,38.707222
jp,akama,Akama,7,,33.8,130.583333,33.8
jp,akama,Akama,38,,36.266667,139.666667,36.266667
jp,akamae,Akamae,16,,39.575,141.955,39.575
jp,akamasa,Akamasa,47,,26.335067,127.880708,26.335067
jp,akamatsu,Akamatsu,26,,36.183333,137.8,36.183333
jp,akamatsu,Akamatsu,31,,35.133333,133.533333,35.133333
jp,akamatsu,Akamatsu,44,,38.673889,140.237778,38.673889
jp,akamatsucho,Akamatsucho,33,,33.25,130.3,33.25
jp,akamatsumachi,Akamatsumachi,33,,33.25,130.3,33.25
jp,akamine,Akamine,47,,26.195572,127.661569,26.195572
jp,akamizu,Akamizu,27,,32.933333,130.033333,32.933333
jp,akamuya,Akamuya,47,,26.335067,127.880708,26.335067
jp,akana,Akana,36,,35,132.716667,35
jp,akanashi,Akanashi,26,,36.35,137.933333,36.35
jp,akane,Akane,30,,33.6,131.583333,33.6
jp,akanehama,Akanehama,4,,35.655,140,35.655
jp,aka-niida,Aka-niida,24,,38.7,140.916667,38.7
jp,aka-niita,Aka-niita,24,,38.7,140.916667,38.7
jp,aka-nitta,Aka-nitta,24,,38.7,140.916667,38.7
jp,akankohan,Akankohan,12,,43.425,144.101389,43.425
jp,akano,Akano,39,,33.883333,133.766667,33.883333
jp,akanuma,Akanuma,8,,37.366667,140.433333,37.366667
jp,akanuma,Akanuma,24,,38.357305,141.034873,38.357305
jp,akao,Akao,27,,33,129.166667,33
jp,akaogi,Akaogi,18,,28.416667,129.633333,28.416667
jp,akaoka,Akaoka,20,,33.533333,133.716667,33.533333
jp,akaoki,Akaoki,18,,28.416667,129.633333,28.416667
jp,akare,Akare,18,,28.316667,129.933333,28.316667
jp,akaren,Akaren,18,,28.316667,129.933333,28.316667
jp,akasa,Akasa,18,,27.05,128.416667,27.05
jp,akasaka,Akasaka,1,,34.85,137.3,34.85
jp,akasaka,Akasaka,9,,35.383333,136.583333,35.383333
jp,akasaka,Akasaka,13,,34.716667,134.95,34.716667
jp,akasaka,Akasaka,24,,38.288611,140.742222,38.288611
jp,akasaka,Akasaka,40,,35.666667,139.716667,35.666667
jp,akasaka,Akasaka,41,,35.516667,133.583333,35.516667
jp,akasaka,Akasaka,44,,38.838056,140.325278,38.838056
jp,akasaka-aoyama-minamicho,Akasaka-Aoyama-minamicho,40,,35.65,139.716667,35.65
jp,akasaka-cho,Akasaka-cho,9,,35.383333,136.583333,35.383333
jp,akasakacho,Akasakacho,9,,35.383333,136.583333,35.383333
jp,akasakada,Akasakada,16,,40.05,141,40.05
jp,akasaka-nagano,Akasaka-nagano,8,,37.05,140.516667,37.05
jp,akasaka-nakano,Akasaka-nakano,8,,37.033333,140.5,37.033333
jp,akasakata,Akasakata,16,,40.05,141,40.05
jp,akasaki,Akasaki,6,,35.687778,136.086667,35.687778
jp,akasaki,Akasaki,11,,34.316667,132.3,34.316667
jp,akasaki,Akasaki,15,,37.166667,136.683333,37.166667
jp,akasaki,Akasaki,16,,39.055,141.766667,39.055
jp,akasaki,Akasaki,21,,32.85,130.583333,32.85
jp,akasaki,Akasaki,41,,35.516667,133.633333,35.516667
jp,akashi,Akashi,11,,34.208333,132.878333,34.208333
jp,akashi,Akashi,13,297281,34.633333,134.983333,34.633333
jp,akashi,Akashi,26,,36.983333,138.516667,36.983333
jp,akashicho,Akashicho,40,,35.666667,139.783333,35.666667
jp,akashiki,Akashiki,47,,26.1925,127.358611,26.1925
jp,akashina,Akashina,26,,36.35,137.933333,36.35
jp,akashinden,Akashinden,24,,38.7,140.916667,38.7
jp,akasi,Akasi,13,,34.633333,134.983333,34.633333
jp,akaska,Akaska,24,,38.288611,140.742222,38.288611
jp,akasumi,Akasumi,15,,37.05,136.733333,37.05
jp,akatani,Akatani,25,,32.683333,131.2,32.683333
jp,akatsuka,Akatsuka,29,,37.816667,138.883333,37.816667
jp,akatsuka,Akatsuka,36,,35.05,132.6,35.05
jp,akautsu,Akautsu,24,,38.583333,141.233333,38.583333
jp,akawa,Akawa,45,,34.333333,130.933333,34.333333
jp,akayu,Akayu,44,,38.053611,140.188056,38.053611
jp,akazaka,Akazaka,41,,35.516667,133.583333,35.516667
jp,akazaki,Akazaki,41,,35.516667,133.633333,35.516667
jp,akazuka,Akazuka,36,,35.05,132.6,35.05
jp,akechi,Akechi,9,,35.3,137.383333,35.3
jp,akeda,Akeda,47,,26.334444,127.806111,26.334444
jp,akedo,Akedo,16,,40.3,141.633333,40.3
jp,akedo,Akedo,34,,36.216667,139.3,36.216667
jp,akeharu,Akeharu,5,,33.233333,132.7,33.233333
jp,akena,Akena,47,,26.370556,127.851111,26.370556
jp,akeno,Akeno,23,,34.516667,136.666667,34.516667
jp,akenobe,Akenobe,13,,35.266667,134.666667,35.266667
jp,akeshina,Akeshina,26,,36.35,137.933333,36.35
jp,aketo,Aketo,16,,40.3,141.633333,40.3
jp,aketo,Aketo,34,,36.216667,139.3,36.216667
jp,akezuka,Akezuka,36,,35.05,132.6,35.05
jp,akiajiba,Akiajiba,12,,43.433333,145.933333,43.433333
jp,aki,Aki,20,20118,33.5,133.9,33.5
jp,akibetsu,Akibetsu,12,,43.266667,144.1,43.266667
jp,akifu,Akifu,6,,35.833333,136.566667,35.833333
jp,akii,Akii,20,,33.5,133.9,33.5
jp,akime,Akime,18,,31.35,130.2,31.35
jp,akimoto,Akimoto,8,,37.65,140.116667,37.65
jp,akina,Akina,18,,28.166667,129.333333,28.166667
jp,akinari,Akinari,29,,36.983333,138.666667,36.983333
jp,akinokami,Akinokami,39,,34.2,134.583333,34.2
jp,akinome,Akinome,18,,31.35,130.2,31.35
jp,akiruno,Akiruno,40,82022,35.749435,139.248346,35.749435
jp,akisato,Akisato,13,,34.95,134.316667,34.95
jp,akishima,Akishima,40,107926,35.720848,139.379991,35.720848
jp,akita,Akita,2,320071,39.716667,140.116667,39.716667
jp,akita,Akita,12,,43.533333,144.016667,43.533333
jp,akita-dantai,Akita-dantai,12,,43.533333,144.016667,43.533333
jp,akita-shi,Akita-shi,2,,39.718056,140.103334,39.718056
jp,akitsu,Akitsu,11,,34.316667,132.821667,34.316667
jp,akiyoshi,Akiyoshi,45,,34.216667,131.283333,34.216667
jp,akizuki,Akizuki,7,,33.466667,130.683333,33.466667
jp,akizuki,Akizuki,11,,34.233333,132.483333,34.233333
jp,akizuki,Akizuki,39,,34.1,134.316667,34.1
jp,akizuki,Akizuki,43,,34.216667,135.2,34.216667
jp,akizukimachi,Akizukimachi,7,,33.466667,130.683333,33.466667
jp,akkeshi,Akkeshi,12,,43.035556,144.8525,43.035556
jp,akkesi,Akkesi,12,,43.035556,144.8525,43.035556
jp,ako,Ako,9,,35.55,137.25,35.55
jp,ako,Ako,13,52016,34.75,134.4,34.75
jp,ako,Ako,40,,34.083333,139.483333,34.083333
jp,akoma,Akoma,19,,35.608611,139.205278,35.608611
jp,akotsu,Akotsu,24,,38.583333,141.233333,38.583333
jp,akozu,Akozu,24,,38.583333,141.233333,38.583333
jp,akubetsu,Akubetsu,12,,43.266667,144.1,43.266667
jp,akuchi,Akuchi,31,,35.016667,133.633333,35.016667
jp,akudo,Akudo,24,,38.495266,141.113793,38.495266
jp,akunoura,Akunoura,27,,32.733333,129.85,32.733333
jp,akunouramachi,Akunouramachi,27,,32.733333,129.85,32.733333
jp,akura,Akura,20,,33.516667,134.166667,33.516667
jp,akutami,Akutami,9,,35.45,136.833333,35.45
jp,akuto,Akuto,16,,40.3,141.633333,40.3
jp,akutsu,Akutsu,10,,36.5,139,36.5
jp,ama,Ama,13,,34.2,134.733333,34.2
jp,ama,Ama,36,,36.1,133.116667,36.1
jp,ama,Ama,47,,26.223056,127.289167,26.223056
jp,amaariki,Amaariki,4,,35.466667,140.133333,35.466667
jp,amadareishi,Amadareishi,12,,41.483333,140.016667,41.483333
jp,amafune,Amafune,13,,35.033333,134.883333,35.033333
jp,amagasaki,Amagasaki,13,442176,34.716667,135.416667,34.716667
jp,amagase,Amagase,28,,34.2,135.983333,34.2
jp,amagase,Amagase,30,,33.25,131.033333,33.25
jp,amagi,Amagi,7,42312,33.416667,130.65,33.416667
jp,amagoya,Amagoya,15,,37.852461,136.922469,37.852461
jp,amahitai,Amahitai,16,,39.833333,141.766667,39.833333
jp,amaji,Amaji,20,,32.8,132.65,32.8
jp,amaki,Amaki,7,,33.416667,130.65,33.416667
jp,amamui,Amamui,30,,33.033333,131.916667,33.033333
jp,amanogo,Amanogo,45,,33.95,130.916667,33.95
jp,amanogocho,Amanogocho,45,,33.95,130.916667,33.95
jp,amanome,Amanome,24,,38.116667,140.9,38.116667
jp,amarube,Amarube,13,,35.65,134.55,35.65
jp,amarume,Amarume,44,,38.838333,139.883333,38.838333
jp,amase,Amase,29,,37.533333,138.666667,37.533333
jp,amasoko,Amasoko,47,,26.671111,127.985556,26.671111
jp,amatsu,Amatsu,4,,35.116667,140.166667,35.116667
jp,amatu,Amatu,4,,35.116667,140.166667,35.116667
jp,amau,Amau,9,,36.266667,137.016667,36.266667
jp,amaya,Amaya,8,,37.566667,139.75,37.566667
jp,amazaki,Amazaki,5,,34.240278,133.05,34.240278
jp,amaze,Amaze,29,,37.533333,138.666667,37.533333
jp,amazi,Amazi,20,,32.8,132.65,32.8
jp,ambo,Ambo,18,,30.316667,130.65,30.316667
jp,ameku,Ameku,47,,26.234722,127.676389,26.234722
jp,amesoko,Amesoko,47,,26.671111,127.985556,26.671111
jp,amesoku,Amesoku,47,,26.671111,127.985556,26.671111
jp,ami,Ami,14,48257,36.033333,140.2,36.033333
jp,amidaji,Amidaji,43,,33.65,135.9,33.65
jp,amihama,Amihama,31,,34.633333,133.933333,34.633333
jp,amike,Amike,47,,26.234722,127.676389,26.234722
jp,amikiyaba,Amikiyaba,18,,28.466667,129.616667,28.466667
jp,amikoyaba,Amikoyaba,18,,28.466667,129.616667,28.466667
jp,amiku,Amiku,47,,26.234722,127.676389,26.234722
jp,amino,Amino,22,,35.683333,135.033333,35.683333
jp,aminohama,Aminohama,31,,34.633333,133.933333,34.633333
jp,aminoko,Aminoko,18,,28.166667,129.366667,28.166667
jp,amishiro,Amishiro,37,,35.05,139.083333,35.05
jp,amisuku,Amisuku,47,,26.671111,127.985556,26.671111
jp,amo,Amo,6,,36.25,136.133333,36.25
jp,amo,Amo,9,,36.266667,137.016667,36.266667
jp,amuro,Amuro,47,,26.218056,127.751389,26.218056
jp,amurogama,Amurogama,18,,28.216667,129.3,28.216667
jp,amurokama,Amurokama,18,,28.216667,129.3,28.216667
jp,amuru,Amuru,47,,26.218056,127.751389,26.218056
jp,anabuki,Anabuki,39,,34.05,134.166667,34.05
jp,anafuki,Anafuki,39,,34.05,134.166667,34.05
jp,anaga,Anaga,13,,34.266667,134.666667,34.266667
jp,anagamo,Anagamo,41,,35.316667,133.833333,35.316667
jp,anagaura,Anagaura,13,,34.266667,134.666667,34.266667
jp,anamizu,Anamizu,15,,37.233333,136.9,37.233333
jp,anan,Anan,39,55422,33.916667,134.65,33.916667
jp,ananohara,Ananohara,24,,38.840556,140.773611,38.840556
jp,anasawa,Anasawa,38,,37.033333,139.95,37.033333
jp,anazawa,Anazawa,38,,37.033333,139.95,37.033333
jp,anden,Anden,2,,39.966667,139.85,39.966667
jp,ando,Ando,16,,39.35,141.916667,39.35
jp,anebetsu,Anebetsu,12,,42.95,143.5,42.95
jp,anegasaki,Anegasaki,4,,35.48,140.033333,35.48
jp,anesaki,Anesaki,4,,35.48,140.033333,35.48
jp,anesakikaigan,Anesakikaigan,4,,35.483333,140.026667,35.483333
jp,anesaki-machi,Anesaki-machi,4,,35.48,140.033333,35.48
jp,anetai,Anetai,16,,39.1,141.183333,39.1
jp,aneyoshi,Aneyoshi,16,,39.516667,142.066667,39.516667
jp,anfuso,Anfuso,47,,26.492778,127.885556,26.492778
jp,anfusu,Anfusu,47,,26.492778,127.885556,26.492778
jp,ango,Ango,11,,34.276111,133.193333,34.276111
jp,anho,Anho,18,,30.316667,130.65,30.316667
jp,aniai,Aniai,2,,40,140.4,40
jp,ani-maeda,Ani-maeda,2,,40.05,140.416667,40.05
jp,anji,Anji,13,,34.983333,134.6,34.983333
jp,anjo,Anjo,1,168664,34.95,137.083333,34.95
jp,anjo,Anjo,18,,30.65,131.05,30.65
jp,anjomachi,Anjomachi,1,,34.95,137.083333,34.95
jp,anju,Anju,22,,34.983333,135.816667,34.983333
jp,ankiyaba,Ankiyaba,18,,28.466667,129.616667,28.466667
jp,anmizu,Anmizu,15,,37.233333,136.9,37.233333
jp,annaka,Annaka,10,48236,36.316667,138.9,36.316667
jp,annaka-kareki,Annaka-Kareki,27,,32.733333,130.366667,32.733333
jp,anno,Anno,18,,30.716667,131.066667,30.716667
jp,anraku,Anraku,18,,31.475,131.074167,31.475
jp,anrakuji,Anrakuji,42,,36.666667,136.85,36.666667
jp,anri,Anri,47,,26.254722,127.7875,26.254722
jp,anshi,Anshi,13,,34.983333,134.6,34.983333
jp,anshucho,Anshucho,22,,34.983333,135.816667,34.983333
jp,antaroma,Antaroma,12,,43.85,142.7,43.85
jp,anto,Anto,6,,36.25,136.133333,36.25
jp,anto,Anto,16,,39.35,141.916667,39.35
jp,anza,Anza,47,,26.173889,127.820278,26.173889
jp,anzama,Anzama,47,,26.173889,127.820278,26.173889
jp,anzencho,Anzencho,19,,35.5,139.7,35.5
jp,anziyan,Anziyan,1,,34.95,137.083333,34.95
jp,ao,Ao,13,,34.866667,134.916667,34.866667
jp,ao,Ao,15,,36.45,136.5,36.45
jp,ao,Ao,23,,34.666667,136.166667,34.666667
jp,ao,Ao,27,,33.45,129.766667,33.45
jp,ao,Ao,42,,36.866667,136.983333,36.866667
jp,aodocho,Aodocho,40,,35.75,139.85,35.75
jp,aogi,Aogi,17,,34.366667,133.691667,34.366667
jp,aogu,Aogu,26,,36.6,137.883333,36.6
jp,aohama,Aohama,7,,33.95,131.016667,33.95
jp,aoicho,Aoicho,1,,35.166667,136.916667,35.166667
jp,aoicho,Aoicho,37,,34.766667,137.716667,34.766667
jp,aokata,Aokata,27,,32.983333,129.066667,32.983333
jp,aoki,Aoki,13,,34.283333,134.766667,34.283333
jp,aoki,Aoki,17,,34.366667,133.691667,34.366667
jp,aoki,Aoki,18,,31.616667,131.05,31.616667
jp,aoki,Aoki,24,,38.466965,141.179509,38.466965
jp,aoki,Aoki,26,,36.366667,138.133333,36.366667
jp,aoki,Aoki,27,,32.95,129.016667,32.95
jp,aoki-gemi,Aoki-gemi,26,,36.35,137.883333,36.35
jp,aokijima,Aokijima,26,,36.616667,138.183333,36.616667
jp,aokijimamachi-aokijima,Aokijimamachi-Aokijima,26,,36.616667,138.183333,36.616667
jp,aoki-kemi,Aoki-kemi,26,,36.35,137.883333,36.35
jp,aoku,Aoku,26,,36.6,137.883333,36.6
jp,aomi,Aomi,29,,37.016667,137.8,37.016667
jp,aomori-shi,Aomori-shi,3,,40.824445,140.74,40.824445
jp,aonae,Aonae,12,,42.054722,139.442222,42.054722
jp,aonai,Aonai,12,,42.054722,139.442222,42.054722
jp,aone,Aone,24,,38.141944,140.533611,38.141944
jp,aono,Aono,24,,38.540278,140.707222,38.540278
jp,aono,Aono,31,,34.616667,133.466667,34.616667
jp,aonohara,Aonohara,19,,35.558056,139.190556,35.558056
jp,aose,Aose,18,,31.671667,129.716667,31.671667
jp,aoshima,Aoshima,5,,33.733333,132.483333,33.733333
jp,aoto,Aoto,18,,31.283333,130.45,31.283333
jp,aoto,Aoto,40,,35.75,139.85,35.75
jp,aotocho,Aotocho,40,,35.75,139.85,35.75
jp,aotomo,Aotomo,26,,36.6,137.883333,36.6
jp,aou,Aou,24,,38.533333,141.033333,38.533333
jp,aouzu,Aouzu,29,,37.65,138.866667,37.65
jp,aoya,Aoya,41,,35.516667,133.983333,35.516667
jp,aoyagi,Aoyagi,9,,35.35,136.6,35.35
jp,aoyagicho,Aoyagicho,9,,35.35,136.6,35.35
jp,aoyama-minami,Aoyama-Minami,40,,35.65,139.716667,35.65
jp,aoyama-minamicho,Aoyama-minamicho,40,,35.65,139.716667,35.65
jp,aoyanagicho,Aoyanagicho,9,,35.35,136.6,35.35
jp,aozu,Aozu,29,,37.65,138.866667,37.65
jp,appetsu,Appetsu,12,,42.420556,142.225833,42.420556
jp,ara,Ara,47,,26.707778,127.8075,26.707778
jp,arafune,Arafune,43,,33.533333,135.9,33.533333
jp,aragachi,Aragachi,47,,26.117778,127.691111,26.117778
jp,aragaki,Aragaki,47,,26.117778,127.691111,26.117778
jp,aragasane,Aragasane,25,,31.85,130.9,31.85
jp,aragawa,Aragawa,2,,39.6,140.35,39.6
jp,aragawamura,Aragawamura,3,,40.783333,140.733333,40.783333
jp,aragusuku,Aragusuku,47,,26.137711,127.742583,26.137711
jp,arahama,Arahama,24,,38.041944,140.905278,38.041944
jp,arahama,Arahama,29,,37.416667,138.583333,37.416667
jp,arai,Arai,13,,34.766667,134.8,34.766667
jp,arai,Arai,24,,38.233333,140.95,38.233333
jp,arai,Arai,29,27481,37.016667,138.25,37.016667
jp,arai,Arai,37,,34.683333,137.566667,34.683333
jp,araijuku,Araijuku,40,,35.583333,139.716667,35.583333
jp,arakachi,Arakachi,47,,26.117778,127.691111,26.117778
jp,arakaki,Arakaki,47,,26.117778,127.691111,26.117778
jp,arakawa,Arakawa,2,,39.6,140.35,39.6
jp,arakawa,Arakawa,3,,40.783333,140.733333,40.783333
jp,arakawa,Arakawa,20,,33.483333,133.45,33.483333
jp,arakawa,Arakawa,27,,32.658056,128.672778,32.658056
jp,arakawa,Arakawa,29,,37.883333,139.316667,37.883333
jp,arakawa,Arakawa,34,,35.95,139.033333,35.95
jp,arakawa,Arakawa,47,,26.65,128.25,26.65
jp,arakawaguchi,Arakawaguchi,29,,38.483333,139.566667,38.483333
jp,arakawahama,Arakawahama,18,,31.733333,130.233333,31.733333
jp,arakawa-mura,Arakawa-mura,29,,37.533333,139.1,37.533333
jp,arakawa-oki,Arakawa-oki,14,,36.033333,140.166667,36.033333
jp,araki,Araki,18,,28.283333,129.916667,28.283333
jp,araki,Araki,34,,36.166667,139.483333,36.166667
jp,arako,Arako,28,,34.383333,135.933333,34.383333
jp,arakohama,Arakohama,18,,31.733333,130.233333,31.733333
jp,arakura,Arakura,46,,35.483333,138.333333,35.483333
jp,aramachi,Aramachi,2,,39.666667,140.566667,39.666667
jp,aramachi,Aramachi,29,,37.283333,138.716667,37.283333
jp,aramachi,Aramachi,44,,38.5575,140.451111,38.5575
jp,aramata,Aramata,42,,36.916667,137.416667,36.916667
jp,aramato,Aramato,42,,36.916667,137.416667,36.916667
jp,araragi,Araragi,26,,35.55,137.633333,35.55
jp,ararakura,Ararakura,46,,35.6,139.05,35.6
jp,arari,Arari,37,,34.816667,138.766667,34.816667
jp,ar-arume,Ar-arume,44,,38.838333,139.883333,38.838333
jp,arasato,Arasato,47,,24.729622,125.341222,24.729622
jp,arasawa,Arasawa,2,,39.45,140.15,39.45
jp,arasawa,Arasawa,29,,37.533333,139.1,37.533333
jp,arasawa,Arasawa,44,,38.15,139.733333,38.15
jp,arase,Arase,2,,39.983333,140.4,39.983333
jp,arase,Arase,7,,33.333333,130.833333,33.333333
jp,arashi,Arashi,5,,33.066667,132.483333,33.066667
jp,arashi,Arashi,19,,35.366667,139.05,35.366667
jp,arashika,Arashika,23,,33.933333,136.15,33.933333
jp,arashima,Arashima,36,,35.433333,133.183333,35.433333
jp,arashinkai,Arashinkai,5,,34.083333,132.983333,34.083333
jp,arashiro,Arashiro,47,,26.137711,127.742583,26.137711
jp,araso,Araso,25,,31.85,130.9,31.85
jp,arato,Arato,30,,32.9,132,32.9
jp,arato,Arato,44,,38.184444,140.093056,38.184444
jp,araya,Araya,2,,39.683333,140.083333,39.683333
jp,araya,Araya,12,,41.416667,140.166667,41.416667
jp,araya,Araya,16,,40.316667,141.25,40.316667
jp,araya,Araya,24,,38.608611,140.975278,38.608611
jp,araya,Araya,29,,37.766667,139.433333,37.766667
jp,araya,Araya,44,,38.65,139.85,38.65
jp,arayacho,Arayacho,2,,39.683333,140.083333,39.683333
jp,arayamachi,Arayamachi,2,,39.683333,140.083333,39.683333
jp,araya-okawamachi,Araya-Okawamachi,2,,39.683333,140.1,39.683333
jp,arayashiki,Arayashiki,8,,37.533333,140.133333,37.533333
jp,arazato,Arazato,47,,24.729622,125.341222,24.729622
jp,arazatu,Arazatu,47,,24.729622,125.341222,24.729622
jp,arazawa,Arazawa,44,,38.15,139.733333,38.15
jp,are,Are,27,,34.266667,129.2,34.266667
jp,arekinai,Arekinai,12,,43.1,144.566667,43.1
jp,ariake,Ariake,40,,35.635,139.786667,35.635
jp,arida,Arida,43,,33.483333,135.733333,33.483333
jp,arifuku,Arifuku,27,,32.9,128.95,32.9
jp,arifukugo,Arifukugo,27,,32.9,128.95,32.9
jp,arihata,Arihata,3,,41.133333,141.266667,41.133333
jp,arikabe,Arikabe,24,,38.866667,141.133333,38.866667
jp,arikawa,Arikawa,27,,32.983333,129.116667,32.983333
jp,arikawago,Arikawago,27,,32.983333,129.116667,32.983333
jp,arima,Arima,13,,34.8,135.25,34.8
jp,arimacho,Arimacho,13,,34.8,135.25,34.8
jp,arimagawa,Arimagawa,29,,37.15,138.15,37.15
jp,arimatsu,Arimatsu,1,,35.066667,136.966667,35.066667
jp,arimizu,Arimizu,25,,31.85,131.133333,31.85
jp,arimune,Arimune,45,,34.333333,131.083333,34.333333
jp,arimura,Arimura,18,,31.55,130.666667,31.55
jp,arioka,Arioka,20,,32.966667,132.833333,32.966667
jp,ariso,Ariso,45,,34.333333,131.083333,34.333333
jp,arita,Arita,33,,33.183333,129.9,33.183333
jp,arita,Arita,43,,33.483333,135.733333,33.483333
jp,aritaki,Aritaki,23,,34.533333,136.7,34.533333
jp,arito,Arito,3,,40.917778,141.191944,40.917778
jp,aritsu,Aritsu,47,,26.583333,128.133333,26.583333
jp,ariumi,Ariumi,27,,32.683333,129.816667,32.683333
jp,arozu,Arozu,5,,34.205,133.092222,34.205
jp,arume,Arume,47,,26.604553,128.120625,26.604553
jp,arumi,Arumi,27,,32.683333,129.816667,32.683333
jp,arumi,Arumi,47,,26.604553,128.120625,26.604553
jp,asa,Asa,45,,34.066667,131.166667,34.066667
jp,asa,Asa,47,,26.236111,127.306389,26.236111
jp,asachino,Asachino,12,,45.205833,142.225556,45.205833
jp,asadatsu,Asadatsu,5,,33.383333,132.416667,33.383333
jp,asae,Asae,45,,33.966667,131.933333,33.966667
jp,asagawa,Asagawa,8,,37.083333,140.416667,37.083333
jp,asagaya,Asagaya,40,,35.7,139.65,35.7
jp,asahi,Asahi,4,41721,35.716667,140.65,35.716667
jp,asahi,Asahi,5,,34.063611,132.998611,34.063611
jp,asahi,Asahi,6,,35.9,136.666667,35.9
jp,asahi,Asahi,12,,42.416667,143.4,42.416667
jp,asahi,Asahi,19,,35.533333,139.7,35.533333
jp,asahi,Asahi,24,,38.486685,141.171807,38.486685
jp,asahi,Asahi,39,,33.866667,134.366667,33.866667
jp,asahicho,Asahicho,11,,34.4,133.1,34.4
jp,asahicho,Asahicho,19,,35.533333,139.7,35.533333
jp,asahicho,Asahicho,27,,32.75,129.866667,32.75
jp,asahigawa,Asahigawa,12,,43.767778,142.370278,43.767778
jp,asahihama,Asahihama,12,,45.2,141.316667,45.2
jp,asahikawa,Asahikawa,12,356615,43.767778,142.370278,43.767778
jp,asahimachi,Asahimachi,3,,40.816667,140.733333,40.816667
jp,asahimachi,Asahimachi,11,,34.4,133.1,34.4
jp,asahimachi,Asahimachi,19,,35.533333,139.7,35.533333
jp,asahimachi,Asahimachi,27,,32.75,129.866667,32.75
jp,asahiyama,Asahiyama,12,,43.95,142.666667,43.95
jp,asai,Asai,24,,38.396706,141.147204,38.396706
jp,asai,Asai,36,,34.9,132.1,34.9
jp,asaji,Asaji,30,,33,131.433333,33
jp,asajino,Asajino,12,,45.205833,142.225556,45.205833
jp,asajinodaichi,Asajinodaichi,12,,45.183333,142.283333,45.183333
jp,asajirio,Asajirio,12,,45.205833,142.225556,45.205833
jp,asaka,Asaka,34,128061,35.804722,139.601944,35.804722
jp,asakaido,Asakaido,34,,35.857222,139.1875,35.857222
jp,asakawa,Asakawa,8,,37.083333,140.416667,37.083333
jp,asakawa,Asakawa,18,,30.683333,131.066667,30.683333
jp,asakawa,Asakawa,39,,33.616667,134.366667,33.616667
jp,asakawa,Asakawa,46,,35.5,138.766667,35.5
jp,asakayamacho,Asakayamacho,32,,34.583333,135.5,34.583333
jp,asakhigava,Asakhigava,12,,43.767778,142.370278,43.767778
jp,asakuragi,Asakuragi,43,,33.6,135.4,33.6
jp,asama,Asama,18,,27.816667,128.883333,27.816667
jp,asama,Asama,26,,36.266667,137.983333,36.266667
jp,asamai,Asamai,2,,39.266667,140.483333,39.266667
jp,asamigawa,Asamigawa,8,,37.2,140.983333,37.2
jp,asamo,Asamo,27,,34.1,129.216667,34.1
jp,asamogawa,Asamogawa,22,,35.683333,135.016667,35.683333
jp,asamokawa,Asamokawa,22,,35.683333,135.016667,35.683333
jp,asamushi,Asamushi,3,,40.885556,140.866944,40.885556
jp,asanai,Asanai,2,,40.15,140.016667,40.15
jp,asanai,Asanai,16,,39.816667,141.733333,39.816667
jp,asanami,Asanami,5,,34,132.8,34
jp,asanamihara,Asanamihara,5,,34,132.8,34
jp,asane,Asane,2,,40.15,140.016667,40.15
jp,asanocho,Asanocho,19,,35.516667,139.733333,35.516667
jp,asaragi,Asaragi,43,,33.6,135.4,33.6
jp,asari,Asari,12,,43.166667,141.066667,43.166667
jp,asari,Asari,36,,35.033333,132.266667,35.033333
jp,asaricho,Asaricho,12,,43.166667,141.066667,43.166667
jp,asari-machi,Asari-machi,12,,43.166667,141.066667,43.166667
jp,asato,Asato,18,,28.333333,129.483333,28.333333
jp,asato,Asato,47,,26.218725,127.6955,26.218725
jp,asatu,Asatu,47,,26.254722,127.7875,26.254722
jp,asebi,Asebi,11,,34.966667,133.05,34.966667
jp,asebi,Asebi,39,,33.866667,134.55,33.866667
jp,asehi,Asehi,39,,33.866667,134.55,33.866667
jp,aseni,Aseni,39,,33.866667,134.55,33.866667
jp,asha,Asha,47,,26.237675,127.691361,26.237675
jp,ashiarai,Ashiarai,42,,36.75,137.166667,36.75
jp,ashi,Ashi,47,,26.318611,127.834722,26.318611
jp,ashibe,Ashibe,33,,33.791944,129.756111,33.791944
jp,ashibetsu,Ashibetsu,12,19108,43.509722,142.185556,43.509722
jp,ashida,Ashida,26,,36.266667,138.316667,36.266667
jp,ashidambai,Ashidambai,18,,31.866667,130.733333,31.866667
jp,ashidambaru,Ashidambaru,18,,31.866667,130.733333,31.866667
jp,ashidanbaru,Ashidanbaru,18,,31.866667,130.733333,31.866667
jp,ashidanibara,Ashidanibara,18,,31.866667,130.733333,31.866667
jp,ashigaura,Ashigaura,27,,34.35,129.366667,34.35
jp,ashiharacho,Ashiharacho,32,,34.666667,135.5,34.666667
jp,ashikaga,Ashikaga,38,159673,36.333333,139.45,36.333333
jp,ashikawa,Ashikawa,12,,45.2,141.733333,45.2
jp,ashikuraji,Ashikuraji,42,,36.583333,137.4,36.583333
jp,ashima,Ashima,26,,35.516667,137.883333,35.516667
jp,ashimi,Ashimi,27,,34.533333,129.45,34.533333
jp,ashimine,Ashimine,47,,26.2,127.65,26.2
jp,ashimmi,Ashimmi,47,,26.2,127.65,26.2
jp,ashino,Ashino,12,,45.3,142.2,45.3
jp,ashino,Ashino,38,,36.983333,140.166667,36.983333
jp,ashinoura,Ashinoura,27,,32.75,129,32.75
jp,ashinoyu,Ashinoyu,19,,35.221389,139.038889,35.221389
jp,ashio,Ashio,38,,36.633333,139.45,36.633333
jp,ashiro,Ashiro,37,,35.05,139.083333,35.05
jp,ashisaki,Ashisaki,42,,36.916667,137.433333,36.916667
jp,ashisawa,Ashisawa,44,,38.633333,140.366667,38.633333
jp,ashita,Ashita,26,,36.266667,138.316667,36.266667
jp,ashitaka,Ashitaka,37,,35.116667,138.833333,35.116667
jp,ashitake,Ashitake,47,,26.2,127.65,26.2
jp,ashito,Ashito,18,,27.033333,128.433333,27.033333
jp,ashiu,Ashiu,22,,35.3,135.7,35.3
jp,ashiya,Ashiya,7,,33.883333,130.666667,33.883333
jp,ashiya,Ashiya,13,88574,34.733333,135.316667,34.733333
jp,ashiyoro,Ashiyoro,12,,43.25,143.583333,43.25
jp,ashiyorobute,Ashiyorobute,12,,43.237222,143.542778,43.237222
jp,ashiyorobuto,Ashiyorobuto,12,,43.237222,143.542778,43.237222
jp,ashizaki,Ashizaki,42,,36.916667,137.433333,36.916667
jp,ashizawa,Ashizawa,44,,38.633333,140.366667,38.633333
jp,ashoro,Ashoro,12,,43.237222,143.542778,43.237222
jp,ashorobuto,Ashorobuto,12,,43.237222,143.542778,43.237222
jp,ashu,Ashu,22,,35.3,135.7,35.3
jp,asibe,Asibe,33,,33.791944,129.756111,33.791944
jp,asikaga,Asikaga,38,,36.333333,139.45,36.333333
jp,asio,Asio,38,,36.633333,139.45,36.633333
jp,aso,Aso,6,,35.716667,136.1,35.716667
jp,aso,Aso,14,,35.983333,140.483333,35.983333
jp,aso,Aso,34,,35.933333,138.9,35.933333
jp,asozu,Asozu,6,,36,136.2,36
jp,assa,Assa,47,,26.236111,127.306389,26.236111
jp,asshinai,Asshinai,12,,42.803056,143.809444,42.803056
jp,asso,Asso,43,,33.7,135.416667,33.7
jp,asu,Asu,27,,34.216667,129.3,34.216667
jp,asuka,Asuka,44,,38.883333,139.916667,38.883333
jp,asuke,Asuke,1,,35.133333,137.316667,35.133333
jp,asuke-cho,Asuke-cho,1,,35.133333,137.316667,35.133333
jp,asuna,Asuna,36,,34.866667,132.616667,34.866667
jp,asusaki,Asusaki,42,,36.916667,137.433333,36.916667
jp,atagoshita,Atagoshita,40,,35.65,139.65,35.65
jp,ataka,Ataka,15,,36.416667,136.416667,36.416667
jp,atakamachi,Atakamachi,15,,36.416667,136.416667,36.416667
jp,ataka-shimmachi,Ataka-shimmachi,15,,36.4,136.4,36.4
jp,ataka-shin,Ataka-shin,15,,36.4,136.4,36.4
jp,ataku,Ataku,15,,36.416667,136.416667,36.416667
jp,atami,Atami,8,,37.483333,140.266667,37.483333
jp,atami,Atami,37,40688,35.089444,139.068611,35.089444
jp,atami,Atami,40,,35.784722,139.0175,35.784722
jp,atanniya,Atanniya,47,,26.290556,127.786111,26.290556
jp,atara shi,Atara shi,28,,34.383333,135.933333,34.383333
jp,atarashika,Atarashika,23,,33.933333,136.15,33.933333
jp,ataruma,Ataruma,12,,43.85,142.7,43.85
jp,atashika,Atashika,23,,33.933333,136.15,33.933333
jp,atawa,Atawa,23,,33.8,136.033333,33.8
jp,atehama,Atehama,17,,34.524167,134.353333,34.524167
jp,aterazaka,Aterazaka,24,,38.403936,141.092976,38.403936
jp,aterazawa,Aterazawa,44,,38.375,140.205556,38.375
jp,atisu,Atisu,45,,34.003333,131.354444,34.003333
jp,atoega,Atoega,12,,42.95,144.633333,42.95
jp,atoeka,Atoeka,12,,42.95,144.633333,42.95
jp,atoichi,Atoichi,36,,34.95,132.216667,34.95
jp,atsu,Atsu,31,,34.583333,134.016667,34.583333
jp,atsubetsu,Atsubetsu,12,,42.420556,142.225833,42.420556
jp,atsuda,Atsuda,12,,43.391667,141.435556,43.391667
jp,atsuga,Atsuga,12,,42.420556,142.225833,42.420556
jp,atsugacho,Atsugacho,12,,42.420556,142.225833,42.420556
jp,atsugi,Atsugi,19,229203,35.438889,139.359722,35.438889
jp,atsu-hongo,Atsu-hongo,45,,34.1,131.133333,34.1
jp,atsukeshi,Atsukeshi,12,,43.035556,144.8525,43.035556
jp,atsuki,Atsuki,19,,35.438889,139.359722,35.438889
jp,atsumi,Atsumi,44,,38.621667,139.6,38.621667
jp,atsumigawa,Atsumigawa,44,,38.583333,139.7,38.583333
jp,atsunai,Atsunai,12,,42.803056,143.809444,42.803056
jp,atsusayama,Atsusayama,26,,35.966667,138.666667,35.966667
jp,atsushio,Atsushio,8,,37.733333,139.883333,37.733333
jp,atsuta,Atsuta,12,,43.391667,141.435556,43.391667
jp,atsuta,Atsuta,47,,26.291111,127.804444,26.291111
jp,atsutabaru,Atsutabaru,47,,26.507222,127.893056,26.507222
jp,atsutko,Atsutko,12,,43.222778,145.252778,43.222778
jp,atsutoko,Atsutoko,12,,43.222778,145.252778,43.222778
jp,attoko,Attoko,12,,43.222778,145.252778,43.222778
jp,attsubaru,Attsubaru,47,,26.583333,128.133333,26.583333
jp,atu,Atu,31,,34.583333,134.016667,34.583333
jp,atugi,Atugi,19,,35.438889,139.359722,35.438889
jp,atukesi,Atukesi,12,,43.035556,144.8525,43.035556
jp,atumi,Atumi,44,,38.621667,139.6,38.621667
jp,atunai,Atunai,12,,42.803056,143.809444,42.803056
jp,atuta,Atuta,12,,43.391667,141.435556,43.391667
jp,awa,Awa,12,,43.25,144.416667,43.25
jp,awa,Awa,47,,26.606111,127.923889,26.606111
jp,awacha,Awacha,47,,26.242778,127.721944,26.242778
jp,awa-dantai,Awa-dantai,12,,43.25,144.416667,43.25
jp,awaga,Awaga,13,,35.066667,134.783333,35.066667
jp,awagamachi,Awagamachi,13,,35.066667,134.783333,35.066667
jp,awagura,Awagura,15,,37.416667,137.1,37.416667
jp,awakura,Awakura,15,,37.416667,137.1,37.416667
jp,awano,Awano,26,,35.35,137.8,35.35
jp,awano,Awano,45,,34.35,130.966667,34.35
jp,awao,Awao,15,,36.45,136.5,36.45
jp,awara,Awara,6,,36.216667,136.2,36.216667
jp,aware,Aware,47,,26.170556,127.340278,26.170556
jp,awaren,Awaren,47,,26.170556,127.340278,26.170556
jp,awase,Awase,47,,26.318611,127.834722,26.318611
jp,awashi,Awashi,47,,26.318611,127.834722,26.318611
jp,awashima,Awashima,17,,34.271667,133.636667,34.271667
jp,awasu,Awasu,42,,36.583333,137.45,36.583333
jp,awatabe,Awatabe,6,,35.916667,136.233333,35.916667
jp,awazu,Awazu,15,,36.333333,136.45,36.333333
jp,awazumachi,Awazumachi,15,,36.333333,136.45,36.333333
jp,awazu-machi,Awazu-machi,35,,34.983333,135.9,34.983333
jp,awo,Awo,15,,36.45,136.5,36.45
jp,aya,Aya,25,,31.983333,131.266667,31.983333
jp,ayabe,Ayabe,22,37613,35.3,135.25,35.3
jp,ayamachi,Ayamachi,25,,31.983333,131.266667,31.983333
jp,ayase,Ayase,19,82613,35.386462,139.417373,35.386462
jp,ayashi,Ayashi,24,,38.266667,140.766667,38.266667
jp,ayudomari,Ayudomari,12,,42.116667,140.016667,42.116667
jp,ayukai,Ayukai,44,,38.183333,140.083333,38.183333
jp,ayukawa,Ayukawa,6,,36.083333,136.033333,36.083333
jp,ayukawa,Ayukawa,12,,42.116667,140.016667,42.116667
jp,ayukawa,Ayukawa,24,,38.3,141.516667,38.3
jp,ayukawacho,Ayukawacho,6,,36.083333,136.033333,36.083333
jp,ayukawahama,Ayukawahama,24,,38.3,141.516667,38.3
jp,aza,Aza,47,,26.237675,127.691361,26.237675
jp,azabu,Azabu,34,,35.933333,138.9,35.933333
jp,azabu-fujimicho,Azabu-Fujimicho,40,,35.65,139.733333,35.65
jp,azagawa,Azagawa,46,,35.5,138.766667,35.5
jp,azaka,Azaka,18,,30.683333,131.066667,30.683333
jp,azako,Azako,18,,30.683333,131.066667,30.683333
jp,azama,Azama,47,,26.173889,127.820278,26.173889
jp,azamo,Azamo,27,,34.1,129.216667,34.1
jp,azamui,Azamui,30,,33.033333,131.916667,33.033333
jp,azanai,Azanai,16,,39.816667,141.733333,39.816667
jp,azena,Azena,23,,34.283333,136.883333,34.283333
jp,azetsu,Azetsu,27,,32.95,129.116667,32.95
jp,azigasawa,Azigasawa,3,,40.774444,140.203056,40.774444
jp,azino,Azino,31,,34.466667,133.8,34.466667
jp,aziro,Aziro,37,,35.05,139.083333,35.05
jp,azisu,Azisu,45,,34.003333,131.354444,34.003333
jp,azo,Azo,6,,35.716667,136.1,35.716667
jp,azu,Azu,19,,35.602222,139.217778,35.602222
jp,azu,Azu,27,,34.216667,129.3,34.216667
jp,azu,Azu,31,,34.583333,134.016667,34.583333
jp,azuchi,Azuchi,27,,33.483333,129.533333,33.483333
jp,azukisawa,Azukisawa,40,,35.766667,139.7,35.766667
jp,azukizawa,Azukizawa,40,,35.766667,139.7,35.766667
jp,azuma,Azuma,10,,36.5,138.5,36.5
jp,azuma,Azuma,12,,42.721389,141.875278,42.721389
jp,azuma,Azuma,40,,35.7,139.8,35.7
jp,azumabashi,Azumabashi,40,,35.7,139.8,35.7
jp,azumacho,Azumacho,12,,42.333333,141.016667,42.333333
jp,azumaiokozan,Azumaiokozan,10,,36.5,138.5,36.5
jp,azuma-shigai,Azuma-shigai,12,,42.721389,141.875278,42.721389
jp,azumi,Azumi,13,,35.116667,134.583333,35.116667
jp,azumi,Azumi,26,,36.133333,137.716667,36.133333
jp,azumino,Azumino,26,,36.288155,137.887055,36.288155
jp,azusabashi,Azusabashi,26,,36.25,137.916667,36.25
jp,azusaboshi,Azusaboshi,26,,36.25,137.916667,36.25
jp,azusawa,Azusawa,40,,35.766667,139.7,35.766667
jp,azusawacho,Azusawacho,40,,35.766667,139.7,35.766667
jp,azusayama,Azusayama,26,,35.966667,138.666667,35.966667
jp,azusugi,Azusugi,27,,34.216667,129.3,34.216667
jp,azuti,Azuti,27,,33.483333,129.533333,33.483333
jp,baba,Baba,8,,37.85,140.65,37.85
jp,baba,Baba,23,,34.65,136.55,34.65
jp,baba,Baba,24,,38.267778,140.641944,38.267778
jp,baba,Baba,26,,36.966667,138.45,36.966667
jp,baba,Baba,31,,34.933333,133.333333,34.933333
jp,baba,Baba,36,,34.9,132.55,34.9
jp,baba,Baba,39,,33.85,134.583333,33.85
jp,baba,Baba,41,,35.483333,134.083333,35.483333
jp,baba,Baba,47,,26.49,127.843056,26.49
jp,babacho,Babacho,32,,34.683333,135.516667,34.683333
jp,babura,Babura,41,,35.483333,134.083333,35.483333
jp,bagaura,Bagaura,15,,37.166667,137.033333,37.166667
jp,bagumbetsu,Bagumbetsu,12,,43.05,140.716667,43.05
jp,bai,Bai,18,,31.166667,130.766667,31.166667
jp,bajo,Bajo,30,,33.466667,131.5,33.466667
jp,bakkai,Bakkai,12,,45.304444,141.621667,45.304444
jp,bakurocho,Bakurocho,3,,40.616667,140.466667,40.616667
jp,bakurocho,Bakurocho,15,,36.566667,136.65,36.566667
jp,bakuro-cho,Bakuro-cho,41,,35.433333,133.35,35.433333
jp,bakuromachi,Bakuromachi,3,,40.616667,140.466667,40.616667
jp,bakuromachi,Bakuromachi,41,,35.433333,133.35,35.433333
jp,bama,Bama,47,,26.322222,127.951389,26.322222
jp,bamba,Bamba,19,,35.517778,139.225278,35.517778
jp,bamba,Bamba,23,,34.65,136.55,34.65
jp,bamba,Bamba,26,,36.966667,138.45,36.966667
jp,bamba,Bamba,38,,36.45,139.466667,36.45
jp,bamba-cho,Bamba-cho,32,,34.683333,135.516667,34.683333
jp,bammachi,Bammachi,26,,36.233333,138.433333,36.233333
jp,banbanchi,Banbanchi,30,,33.666667,131.516667,33.666667
jp,banchi,Banchi,47,,26.726492,128.164597,26.726492
jp,bancho,Bancho,40,,35.683333,139.75,35.683333
jp,banda,Banda,4,,34.966667,139.783333,34.966667
jp,banda,Banda,31,,34.566667,134.016667,34.566667
jp,bandai-cho,Bandai-cho,39,,34.066667,134.566667,34.066667
jp,bandaimachi,Bandaimachi,39,,34.066667,134.566667,34.066667
jp,bando,Bando,14,,36.069966,139.867051,36.069966
jp,bando,Bando,39,,34.15,134.5,34.15
jp,bange,Bange,8,,37.566667,139.816667,37.566667
jp,banjo,Banjo,28,,34.633333,135.8,34.633333
jp,bankei,Bankei,12,,42.583333,141.033333,42.583333
jp,bannaguro,Bannaguro,12,,43.168611,141.321111,43.168611
jp,bannaguru,Bannaguru,12,,43.168611,141.321111,43.168611
jp,bansho,Bansho,34,,36,139.3,36
jp,banta,Banta,31,,34.566667,134.016667,34.566667
jp,banto,Banto,39,,34.15,134.5,34.15
jp,banya,Banya,46,,35.733333,138.8,35.733333
jp,banyagamine,Banyagamine,18,,30.65,130.983333,30.65
jp,banyamai,Banyamai,12,,44.433333,141.333333,44.433333
jp,banyamari,Banyamari,12,,44.433333,141.333333,44.433333
jp,banyamine,Banyamine,18,,30.65,130.983333,30.65
jp,banzai,Banzai,39,,34.133333,134.466667,34.133333
jp,barajima,Barajima,16,,39.75,141.133333,39.75
jp,barato,Barato,12,,43.166667,141.35,43.166667
jp,barazaki,Barazaki,44,,38.383333,140.4,38.383333
jp,baren,Baren,47,,26.183889,127.771111,26.183889
jp,barshima,Barshima,16,,39.75,141.133333,39.75
jp,basui,Basui,11,,34.966667,133.05,34.966667
jp,baten,Baten,47,,26.183889,127.771111,26.183889
jp,bato,Bato,38,,36.733333,140.166667,36.733333
jp,bebetsu,Bebetsu,12,,43.683333,142.4,43.683333
jp,befu,Befu,13,,34.716667,134.85,34.716667
jp,behu,Behu,5,,34.08,132.9,34.08
jp,bekkai,Bekkai,12,,43.375833,145.286667,43.375833
jp,bekkari,Bekkari,12,,43.833333,141.483333,43.833333
jp,bekku,Bekku,15,,36.35,136.6,36.35
jp,bembe,Bembe,12,,42.573056,140.708333,42.573056
jp,benkei,Benkei,12,,42.533333,141.033333,42.533333
jp,benochi,Benochi,47,,26.796378,128.235514,26.796378
jp,benoki,Benoki,47,,26.796378,128.235514,26.796378
jp,bentencho,Bentencho,12,,43.851944,141.521389,43.851944
jp,bentencho,Bentencho,13,,34.683333,135.183333,34.683333
jp,bentendori,Bentendori,12,,45.4,141.683333,45.4
jp,beppo,Beppo,12,,42.983333,144.483333,42.983333
jp,beppu,Beppu,12,,42.85,143.133333,42.85
jp,beppu,Beppu,13,,34.716667,134.85,34.716667
jp,beppu,Beppu,30,125067,33.273611,131.491944,33.273611
jp,beppu,Beppu,36,,35.1,132.533333,35.1
jp,beppucho,Beppucho,25,,31.916667,131.416667,31.916667
jp,beppumachi,Beppumachi,25,,31.916667,131.416667,31.916667
jp,beshibokk,Beshibokk,12,,42.333333,141.016667,42.333333
jp,beshibokke,Beshibokke,12,,42.333333,141.016667,42.333333
jp,beshipokke,Beshipokke,12,,42.333333,141.016667,42.333333
jp,bessako,Bessako,11,,34.633333,133.066667,34.633333
jp,besshakudomari,Besshakudomari,12,,42.933333,144.783333,42.933333
jp,bessho,Bessho,6,,36.033333,136.066667,36.033333
jp,bessho,Bessho,13,,34.8,134.75,34.8
jp,bessho,Bessho,15,,37.266667,136.833333,37.266667
jp,bessho,Bessho,24,,38.406962,141.027861,38.406962
jp,bessho,Bessho,26,,36.35,138.15,36.35
jp,bessho,Bessho,40,,35.607222,139.458611,35.607222
jp,betchako,Betchako,12,,42.916667,143.266667,42.916667
jp,betchakudomari,Betchakudomari,12,,42.933333,144.783333,42.933333
jp,betcharo,Betcharo,12,,42.916667,143.266667,42.916667
jp,betomunai,Betomunai,12,,42.775556,142.221111,42.775556
jp,betsugari,Betsugari,12,,43.833333,141.516667,43.833333
jp,betsukari,Betsukari,12,,43.833333,141.483333,43.833333
jp,betsuku,Betsuku,15,,36.35,136.6,36.35
jp,betsusako,Betsusako,11,,34.633333,133.066667,34.633333
jp,betsutoga,Betsutoga,12,,43.25,145.4,43.25
jp,bettoga,Bettoga,12,,43.25,145.4,43.25
jp,betutoga,Betutoga,12,,43.25,145.4,43.25
jp,beutankeushi,Beutankeushi,12,,45.116667,141.2,45.116667
jp,bibai,Bibai,12,29029,43.324722,141.858611,43.324722
jp,bibasei,Bibasei,12,,43.05,145.083333,43.05
jp,bibi,Bibi,12,,42.75,141.716667,42.75
jp,biboro,Biboro,12,,43.822778,144.104444,43.822778
jp,biei,Biei,12,,43.584444,142.459722,43.584444
jp,bifuka,Bifuka,12,,44.475278,142.343056,44.475278
jp,bifuka-shigai,Bifuka-shigai,12,,44.475278,142.343056,44.475278
jp,biholo,Biholo,12,,43.822778,144.104444,43.822778
jp,bihoro,Bihoro,12,22972,43.822778,144.104444,43.822778
jp,biimatabaru,Biimatabaru,47,,26.605833,127.9725,26.605833
jp,biimata,Biimata,47,,26.605833,127.9725,26.605833
jp,biishi,Biishi,47,,26.702222,127.875278,26.702222
jp,bikuni,Bikuni,12,,43.290278,140.600556,43.290278
jp,binnai,Binnai,12,,43,144.733333,43
jp,binneshiri,Binneshiri,12,,44.872222,142.217222,44.872222
jp,binuchi,Binuchi,47,,26.796378,128.235514,26.796378
jp,biporo,Biporo,12,,43.822778,144.104444,43.822778
jp,bira,Bira,15,,37.233333,136.966667,37.233333
jp,birambetsu,Birambetsu,12,,43.133333,143.466667,43.133333
jp,biratomanai,Biratomanai,12,,43.066667,144.3,43.066667
jp,biratori,Biratori,12,,42.583333,142.133333,42.583333
jp,biroo,Biroo,12,,42.283889,143.319167,42.283889
jp,birugawamachi,Birugawamachi,15,,36.433333,136.466667,36.433333
jp,birukawamachi,Birukawamachi,15,,36.433333,136.466667,36.433333
jp,biruwa,Biruwa,12,,43.55,144.433333,43.55
jp,biruwagenya,Biruwagenya,12,,43.55,144.433333,43.55
jp,bise,Bise,47,,26.702222,127.875278,26.702222
jp,bisumatomanai,Bisumatomanai,12,,44.093056,144.236111,44.093056
jp,bisumatonanai,Bisumatonanai,12,,44.093056,144.236111,44.093056
jp,biuka,Biuka,12,,44.475278,142.343056,44.475278
jp,biwajima,Biwajima,29,,37.35,138.55,37.35
jp,biwase,Biwase,12,,43.05,145.083333,43.05
jp,biya,Biya,12,,42.816667,140.3,42.816667
jp,bo,Bo,18,,31.266667,130.233333,31.266667
jp,bochu,Bochu,21,,32.933333,131.083333,32.933333
jp,bodai,Bodai,19,,35.405278,139.190556,35.405278
jp,bode,Bode,32,,34.35,135.233333,34.35
jp,bofu,Bofu,45,,34.05,131.566667,34.05
jp,bohu,Bohu,45,,34.05,131.566667,34.05
jp,bojo,Bojo,28,,34.483333,135.766667,34.483333
jp,boma,Boma,18,,27.8,128.983333,27.8
jp,boojicho,Boojicho,13,,34.683333,135.15,34.683333
jp,bora,Bora,47,,24.733408,125.424583,24.733408
jp,boseura,Boseura,13,,34.65,134.516667,34.65
jp,botancho,Botancho,40,,35.666667,139.8,35.666667
jp,bote,Bote,32,,34.35,135.233333,34.35
jp,botsutsumi,Botsutsumi,20,,33.55,133.566667,33.55
jp,boze,Boze,5,,34.141667,133.015278,34.141667
jp,boze,Boze,13,,34.65,134.516667,34.65
jp,bozu tsumi,Bozu Tsumi,20,,33.55,133.566667,33.55
jp,bubu,Bubu,18,,30.683333,131.05,30.683333
jp,budo,Budo,29,,38.383333,139.55,38.383333
jp,buhama,Buhama,12,,42.073056,139.424444,42.073056
jp,buimai,Buimai,12,,42.033333,143.116667,42.033333
jp,bunda,Bunda,29,,37.8,139.2,37.8
jp,bungata,Bungata,12,,43.2,140.916667,43.2
jp,bungo-mori,Bungo-Mori,30,,33.274722,131.151111,33.274722
jp,bushi,Bushi,12,,42.316667,142.55,42.316667
jp,bushigawa,Bushigawa,12,,42.151944,139.520278,42.151944
jp,butaizuka,Butaizuka,24,,38.44072,141.134577,38.44072
jp,byunoharu,Byunoharu,18,,31.883333,130.316667,31.883333
jp,camp futema,Camp Futema,47,,26.287222,127.773056,26.287222
jp,chabana,Chabana,18,,27.05,128.416667,27.05
jp,chahana,Chahana,18,,27.05,128.416667,27.05
jp,chanai,Chanai,12,,43.1225,145.024167,43.1225
jp,chanai,Chanai,34,,35.859167,139.220278,35.859167
jp,chan,Chan,47,,26.184722,127.724722,26.184722
jp,charachinai,Charachinai,12,,42.3,141,42.3
jp,chara-dantai,Chara-dantai,12,,43.616667,144.883333,43.616667
jp,charannai,Charannai,12,,42.3,141,42.3
jp,charashinai,Charashinai,12,,42.3,141,42.3
jp,chashikotsugenya,Chashikotsugenya,12,,44.066667,145.016667,44.066667
jp,chashinai,Chashinai,12,,43.366667,141.866667,43.366667
jp,chatan,Chatan,47,27844,26.309444,127.770278,26.309444
jp,chaya,Chaya,31,,34.566667,133.816667,34.566667
jp,chiaraijima,Chiaraijima,34,,36.233333,139.25,36.233333
jp,chiaraishima,Chiaraishima,34,,36.233333,139.25,36.233333
jp,chiarijima,Chiarijima,34,,36.233333,139.25,36.233333
jp,chibana,Chibana,47,,26.358611,127.808889,26.358611
jp,chiba-nyutaun,Chiba-nyutaun,4,,35.8,140.166667,35.8
jp,chiba-shi,Chiba-shi,4,,35.604722,140.123334,35.604722
jp,chibiki,Chibiki,3,,40.8,141.133333,40.8
jp,chibuske,Chibuske,12,,44.023056,144.936389,44.023056
jp,chibusuke,Chibusuke,12,,44.023056,144.936389,44.023056
jp,chichibubetsu,Chichibubetsu,12,,43.766667,141.966667,43.766667
jp,chichibu,Chichibu,34,58508,35.990278,139.076389,35.990278
jp,chichii,Chichii,36,,36.083333,133.116667,36.083333
jp,chichiishi,Chichiishi,11,,34.55,133.216667,34.55
jp,chida,Chida,29,,37.816667,138.316667,37.816667
jp,chidori,Chidori,4,,35.618333,139.9,35.618333
jp,chidori,Chidori,19,,35.517154,139.756819,35.517154
jp,chidori-cho,Chidori-cho,19,,35.517154,139.756819,35.517154
jp,chidoricho,Chidoricho,31,,34.533333,133.733333,34.533333
jp,chiebun,Chiebun,12,,44.433333,142.4,44.433333
jp,chiebun-shigai,Chiebun-shigai,12,,44.433333,142.4,44.433333
jp,chie,Chie,1,,34.783333,137.183333,34.783333
jp,chiembetsu,Chiembetsu,12,,44.1,145.25,44.1
jp,chieneshirara,Chieneshirara,12,,45.15,141.333333,45.15
jp,chienshirara,Chienshirara,12,,45.15,141.333333,45.15
jp,chifuwa,Chifuwa,47,,26.184742,127.818917,26.184742
jp,chigaki,Chigaki,42,,36.566667,137.366667,36.566667
jp,chigara,Chigara,1,,34.783333,137.183333,34.783333
jp,chigaraki,Chigaraki,19,,35.326111,139.403889,35.326111
jp,chigasaki,Chigasaki,19,231660,35.326111,139.403889,35.326111
jp,chigirishima,Chigirishima,11,,34.3,132.9,34.3
jp,chigusa,Chigusa,23,,35.033333,136.483333,35.033333
jp,chigusacho,Chigusacho,1,,35.166667,136.933333,35.166667
jp,chigusa-kaigan,Chigusa-kaigan,4,,35.507382,140.045556,35.507382
jp,chigusakaigan,Chigusakaigan,4,,35.507382,140.045556,35.507382
jp,chigusa-machi,Chigusa-machi,1,,35.166667,136.933333,35.166667
jp,chiha,Chiha,47,,26.184742,127.818917,26.184742
jp,chihama,Chihama,37,,34.65,138.083333,34.65
jp,chiharacho,Chiharacho,1,,35.183333,136.866667,35.183333
jp,chiharamachi,Chiharamachi,1,,35.183333,136.866667,35.183333
jp,chihaya,Chihaya,6,,35.416667,135.65,35.416667
jp,chihena,Chihena,47,,26.358611,127.808889,26.358611
jp,chiisago,Chiisago,12,,41.65,140,41.65
jp,chiishi,Chiishi,11,,34.55,133.216667,34.55
jp,chiitomanai,Chiitomanai,12,,45.416667,142.033333,45.416667
jp,chiji,Chiji,15,,36.916667,136.8,36.916667
jp,chiji,Chiji,27,,32.866667,129.05,32.866667
jp,chijiwa,Chijiwa,27,,32.776111,130.191111,32.776111
jp,chijuka,Chijuka,47,,26.705608,128.145736,26.705608
jp,chikabumicho,Chikabumicho,12,,43.783333,142.333333,43.783333
jp,chikagawa,Chikagawa,3,,41.183333,141.283333,41.183333
jp,chikaraishi,Chikaraishi,26,,36.45,138.166667,36.45
jp,chikasono,Chikasono,38,,36.816667,140.016667,36.816667
jp,chikatsuyu,Chikatsuyu,43,,33.816667,135.6,33.816667
jp,chikaura,Chikaura,12,,42.05,143.083333,42.05
jp,chikawa,Chikawa,11,,34.683333,132.666667,34.683333
jp,chikayobu,Chikayobu,12,,42.05,143.083333,42.05
jp,chikayoppu,Chikayoppu,12,,42.05,143.083333,42.05
jp,chikayopu,Chikayopu,12,,42.05,143.083333,42.05
jp,chikazono,Chikazono,38,,36.816667,140.016667,36.816667
jp,chikei,Chikei,16,,39.516667,142.033333,39.516667
jp,chikirishima,Chikirishima,11,,34.3,132.9,34.3
jp,chikubetsuhonryu,Chikubetsuhonryu,12,,44.383333,141.883333,44.383333
jp,chikujo,Chikujo,7,,33.666667,131.033333,33.666667
jp,chikuma,Chikuma,26,,36.527147,138.089426,36.527147
jp,chikume,Chikume,36,,35.566667,133.133333,35.566667
jp,chikumi,Chikumi,36,,35.566667,133.133333,35.566667
jp,chikummi,Chikummi,47,,26.166667,127.666667,26.166667
jp,chikuni,Chikuni,26,,36.75,137.9,36.75
jp,chikura,Chikura,4,,34.95,139.95,34.95
jp,chikusa,Chikusa,13,,35.15,134.433333,35.15
jp,chikusa,Chikusa,23,,35.033333,136.483333,35.033333
jp,chikusacho,Chikusacho,1,,35.166667,136.933333,35.166667
jp,chikusamachi,Chikusamachi,1,,35.166667,136.933333,35.166667
jp,chikusei,Chikusei,14,,36.315999,139.98238,36.315999
jp,chikushi,Chikushi,12,,43.766667,141.966667,43.766667
jp,chikuto,Chikuto,47,,26.166667,127.666667,26.166667
jp,chilanufuma,Chilanufuma,18,,31.366667,130.45,31.366667
jp,chimbe,Chimbe,12,,42.983333,144.933333,42.983333
jp,chiminami,Chiminami,12,,44.4,142.4,44.4
jp,chimu,Chimu,47,,26.452222,127.917778,26.452222
jp,china,China,47,,26.183333,127.8,26.183333
jp,chinan,Chinan,12,,44.4,142.4,44.4
jp,chinase,Chinase,18,,28.379265,129.449389,28.379265
jp,chin,Chin,47,,26.452222,127.917778,26.452222
jp,chinda,Chinda,30,,32.983333,131.516667,32.983333
jp,chindataki,Chindataki,30,,32.983333,131.516667,32.983333
jp,chinen,Chinen,47,,26.156111,127.808611,26.156111
jp,chinin,Chinin,47,,26.156111,127.808611,26.156111
jp,chinishibetsu,Chinishibetsu,12,,43.983333,145.166667,43.983333
jp,chinkobe,Chinkobe,12,,42.433333,140.166667,42.433333
jp,chino,Chino,26,56567,35.983333,138.15,35.983333
jp,chinon,Chinon,47,,26.26265,127.761472,26.26265
jp,chipira,Chipira,12,,42.016667,143.283333,42.016667
jp,chippubetsu,Chippubetsu,12,,43.766667,141.966667,43.766667
jp,chipputomari,Chipputomari,12,,43.95,144.833333,43.95
jp,chipudomari,Chipudomari,12,,43.95,144.833333,43.95
jp,chiraibetsu,Chiraibetsu,12,,45.372222,142.088889,45.372222
jp,chiran,Chiran,18,,31.366667,130.45,31.366667
jp,chiromo,Chiromo,27,,34.4,129.366667,34.4
jp,chiroro,Chiroro,12,,42.886389,142.535833,42.886389
jp,chiryu,Chiryu,1,67062,35,137.033333,35
jp,chiryu-cho,Chiryu-cho,1,,35,137.033333,35
jp,chisaka,Chisaka,12,,42.886389,142.535833,42.886389
jp,chise,Chise,47,,26.533611,127.939444,26.533611
jp,chishaba,Chishaba,47,,26.301944,127.790278,26.301944
jp,chishi,Chishi,47,,26.533611,127.939444,26.533611
jp,chishimacho,Chishimacho,32,,34.65,135.483333,34.65
jp,chita,Chita,1,83276,35.002668,136.864205,35.002668
jp,chitchaku,Chitchaku,47,,26.931933,127.924778,26.931933
jp,chitose,Chitose,12,92943,42.819444,141.652222,42.819444
jp,chitose,Chitose,22,,35.509444,135.347778,35.509444
jp,chitosecho,Chitosecho,23,,34.95,136.633333,34.95
jp,chitosemachi,Chitosemachi,23,,34.95,136.633333,34.95
jp,chitsuyani,Chitsuyani,12,,42.133333,143.316667,42.133333
jp,chiwa,Chiwa,47,,26.184742,127.818917,26.184742
jp,chiwaka,Chiwaka,19,,35.475,139.658333,35.475
jp,chiwakacho,Chiwakacho,19,,35.475,139.658333,35.475
jp,chiwakamachi,Chiwakamachi,19,,35.475,139.658333,35.475
jp,chiyagawa,Chiyagawa,29,,37.3,138.8,37.3
jp,chiyakawa,Chiyakawa,29,,37.3,138.8,37.3
jp,chiyamu,Chiyamu,47,,26.088889,127.657778,26.088889
jp,chiyan,Chiyan,47,,26.088889,127.657778,26.088889
jp,chiyembetsu,Chiyembetsu,12,,44.1,145.25,44.1
jp,chiyunna,Chiyunna,47,,26.284892,127.761042,26.284892
jp,chizu,Chizu,41,,35.266667,134.233333,35.266667
jp,choba,Choba,31,,34.366667,133.55,34.366667
jp,choboshi,Choboshi,12,,43.25,145.566667,43.25
jp,chobushi,Chobushi,12,,43.25,145.566667,43.25
jp,choda,Choda,13,,34.866667,134.633333,34.866667
jp,chodo,Chodo,16,,38.983333,141.716667,38.983333
jp,chofu,Chofu,40,212978,35.655556,139.552222,35.655556
jp,chofu-miyazakicho,Chofu-Miyazakicho,45,,33.983333,130.983333,33.983333
jp,chogo,Chogo,3,,41.366667,140.833333,41.366667
jp,chogo,Chogo,19,,35.408333,139.467222,35.408333
jp,chojabara,Chojabara,7,,33.616667,130.483333,33.616667
jp,chojabaru,Chojabaru,7,,33.616667,130.483333,33.616667
jp,choja,Choja,4,,35.3,140.4,35.3
jp,choja,Choja,20,,33.483333,133.133333,33.483333
jp,chojahara,Chojahara,44,,37.966667,139.683333,37.966667
jp,chojamachi,Chojamachi,4,,35.3,140.4,35.3
jp,chokoji,Chokoji,16,,40.216667,141.416667,40.216667
jp,chokubetsu,Chokubetsu,12,,42.85,143.866667,42.85
jp,chomon,Chomon,45,,33.95,130.916667,33.95
jp,chonai,Chonai,12,,43.1225,145.024167,43.1225
jp,chonan,Chonan,4,,35.4,140.233333,35.4
jp,choshi,Choshi,2,,40.366667,140.883333,40.366667
jp,choshi,Choshi,4,75651,35.733333,140.833333,35.733333
jp,choshida,Choshida,11,,34.15,132.5,34.15
jp,choshoji,Choshoji,32,,34.516667,135.45,34.516667
jp,chosi,Chosi,4,,35.733333,140.833333,35.733333
jp,chota,Chota,47,,26.538056,127.967778,26.538056
jp,choto,Choto,24,,38.238333,141.488333,38.238333
jp,chucho,Chucho,29,,37.583333,138.833333,37.583333
jp,chuda,Chuda,47,,26.538056,127.967778,26.538056
jp,chude,Chude,47,,26.538056,127.967778,26.538056
jp,chugonji,Chugonji,29,,37.833333,138.916667,37.833333
jp,chuji,Chuji,8,,37.383333,140.133333,37.383333
jp,chujo,Chujo,29,,37.583333,138.833333,37.583333
jp,chuoburaku,Chuoburaku,12,,44.433333,142.4,44.433333
jp,chuo,Chuo,4,,35.607778,140.126667,35.607778
jp,chuo,Chuo,12,,43.616667,144.966667,43.616667
jp,chuoko,Chuoko,4,,35.602778,140.1,35.602778
jp,chuo-sarakishi,Chuo-sarakishi,12,,44.85,141.783333,44.85
jp,chuo-shigai,Chuo-shigai,12,,43.616667,144.966667,43.616667
jp,churui,Churui,12,,42.566667,143.333333,42.566667
jp,churuigenya,Churuigenya,12,,43.75,145.033333,43.75
jp,churyu,Churyu,6,,35.883333,136.6,35.883333
jp,churyukozan,Churyukozan,6,,35.883333,136.6,35.883333
jp,chusha,Chusha,26,,36.733333,138.083333,36.733333
jp,chuta,Chuta,47,,26.538056,127.967778,26.538056
jp,dachi-cho,Dachi-cho,9,,35.316667,137.233333,35.316667
jp,dachicho,Dachicho,9,,35.316667,137.233333,35.316667
jp,dachi,Dachi,9,,35.316667,137.233333,35.316667
jp,dachiku,Dachiku,33,,33.466667,129.8,33.466667
jp,daekoya,Daekoya,44,,38.600278,140.288056,38.600278
jp,daibacho,Daibacho,27,,32.75,129.866667,32.75
jp,daibo,Daibo,16,,39.966667,141.25,39.966667
jp,daibunri,Daibunri,1,,34.783333,137.4,34.783333
jp,daibutsu,Daibutsu,19,,35.4075,139.040278,35.4075
jp,daicho,Daicho,11,,34.183333,132.85,34.183333
jp,dai,Dai,36,,36.066667,133.1,36.066667
jp,daido,Daido,45,,34.05,131.483333,34.05
jp,daigahara,Daigahara,46,,35.8,138.35,35.8
jp,daigocho,Daigocho,22,,34.95,135.816667,34.95
jp,daigo,Daigo,2,,39.233333,140.533333,39.233333
jp,daigo,Daigo,14,22311,36.766667,140.35,36.766667
jp,daigo,Daigo,22,,34.95,135.816667,34.95
jp,daigyo,Daigyo,29,,38.35,139.55,38.35
jp,daihata,Daihata,24,,38.46582,141.046392,38.46582
jp,daiho,Daiho,27,,32.601111,128.653611,32.601111
jp,daihogo,Daihogo,27,,32.601111,128.653611,32.601111
jp,daiji,Daiji,43,,33.583333,135.95,33.583333
jp,daikachi,Daikachi,18,,28.383333,129.583333,28.383333
jp,daikaidori,Daikaidori,13,,34.666667,135.166667,34.666667
jp,daikocho,Daikocho,1,,35.183333,136.95,35.183333
jp,daikokucho,Daikokucho,19,,35.483333,139.683333,35.483333
jp,daikoku,Daikoku,19,,35.483333,139.683333,35.483333
jp,daikomachi,Daikomachi,1,,35.183333,136.95,35.183333
jp,daiku,Daiku,36,,36.25,133.366667,36.25
jp,daikuma,Daikuma,18,,28.4,129.533333,28.4
jp,daimae,Daimae,24,,38.401734,141.150819,38.401734
jp,daimommachi,Daimommachi,41,,35.386297,134.289931,35.386297
jp,daimoncho,Daimoncho,41,,35.386297,134.289931,35.386297
jp,daimon,Daimon,26,,36.1,137.966667,36.1
jp,daimon,Daimon,41,,35.386297,134.289931,35.386297
jp,daimon,Daimon,42,,36.733333,137.05,36.733333
jp,daini-china,Daini-china,47,,26.183333,127.8,26.183333
jp,daini-higashi,Daini-Higashi,32,,34.7,135.483333,34.7
jp,dainota,Dainota,9,,35.6,137.033333,35.6
jp,dainyu,Dainyu,7,,33.505,130.101667,33.505
jp,daira,Daira,2,,40.376389,140.32,40.376389
jp,daira,Daira,6,,35.801944,136.0925,35.801944
jp,dairakozan,Dairakozan,2,,40.376389,140.32,40.376389
jp,dairi,Dairi,45,,33.9,130.916667,33.9
jp,dairi-shimmachi,Dairi-shimmachi,45,,33.9,130.916667,33.9
jp,daisen,Daisen,2,,39.441164,140.489613,39.441164
jp,daisen,Daisen,41,,35.383333,133.533333,35.383333
jp,daishibu,Daishibu,12,,43.783333,143.683333,43.783333
jp,daishinden,Daishinden,26,,36.5,137.866667,36.5
jp,daishoji,Daishoji,15,,36.3,136.316667,36.3
jp,daito,Daito,12,,43.883333,144.2,43.883333
jp,daito,Daito,28,,34.45,135.933333,34.45
jp,daito,Daito,32,129523,34.7,135.616667,34.7
jp,daito,Daito,36,,35.316667,132.966667,35.316667
jp,daiyama,Daiyama,24,,38.428822,141.091031,38.428822
jp,daiyombu,Daiyombu,12,,43.783333,143.683333,43.783333
jp,dajiku,Dajiku,33,,33.466667,129.8,33.466667
jp,dakeshi,Dakeshi,47,,26.235,127.708611,26.235
jp,dakiton,Dakiton,47,,26.158056,127.688889,26.158056
jp,dakitun,Dakitun,47,,26.158056,127.688889,26.158056
jp,dakuchaku,Dakuchaku,47,,26.35,127.783333,26.35
jp,dakujaku,Dakujaku,47,,26.35,127.783333,26.35
jp,dakushaku,Dakushaku,47,,26.35,127.783333,26.35
jp,dana,Dana,47,,27.061942,127.986861,27.061942
jp,dannayama,Dannayama,24,,38.470621,141.071634,38.470621
jp,dannouracho,Dannouracho,45,,33.95,130.95,33.95
jp,dannoura,Dannoura,45,,33.95,130.95,33.95
jp,dannouramachi,Dannouramachi,45,,33.95,130.95,33.95
jp,datake,Datake,33,,33.466667,129.8,33.466667
jp,date,Date,8,,37.816667,140.5,37.816667
jp,date,Date,12,35301,42.468056,140.868056,42.468056
jp,dategata,Dategata,37,,34.783333,138.066667,34.783333
jp,datiku,Datiku,33,,33.466667,129.8,33.466667
jp,daziku,Daziku,33,,33.466667,129.8,33.466667
jp,deai,Deai,20,,33.033333,132.883333,33.033333
jp,deai,Deai,39,,33.95,133.8,33.95
jp,de,De,42,,36.633333,136.95,36.633333
jp,dedo,Dedo,3,,41,141.383333,41
jp,de-gamo,De-gamo,35,,35.316667,136.016667,35.316667
jp,deguchi,Deguchi,2,,40.266667,140.45,40.266667
jp,dejimacho,Dejimacho,27,,32.733333,129.883333,32.733333
jp,dejima,Dejima,27,,32.733333,129.883333,32.733333
jp,dejima,Dejima,43,,34.183333,135.15,34.183333
jp,dejimamachi,Dejimamachi,27,,32.733333,129.883333,32.733333
jp,de-kamo,De-kamo,35,,35.316667,136.016667,35.316667
jp,dekichi,Dekichi,20,,33.583333,133.316667,33.583333
jp,dekiji,Dekiji,20,,33.583333,133.316667,33.583333
jp,dekijima,Dekijima,3,,40.833333,140.283333,40.833333
jp,dekijima,Dekijima,29,,37.9,139.016667,37.9
jp,dekishima,Dekishima,29,,37.9,139.016667,37.9
jp,dekujaku,Dekujaku,47,,26.35,127.783333,26.35
jp,dekuma,Dekuma,18,,28.4,129.533333,28.4
jp,demachi,Demachi,42,,36.633333,136.95,36.633333
jp,demboji,Demboji,7,,33.616667,130.983333,33.616667
jp,dempocho-kita,Dempocho-kita,32,,34.683333,135.466667,34.683333
jp,dempocho-minami,Dempocho-minami,13,,34.683333,135.45,34.683333
jp,dempoji,Dempoji,7,,33.616667,130.983333,33.616667
jp,denenchofu,Denenchofu,19,,35.583333,139.666667,35.583333
jp,denhoji,Denhoji,7,,33.616667,130.983333,33.616667
jp,denjiyama,Denjiyama,1,,35.083333,136.95,35.083333
jp,deno,Deno,30,,33.216667,130.883333,33.216667
jp,denpo-machi-kita,Denpo-machi-Kita,32,,34.683333,135.466667,34.683333
jp,dento,Dento,11,,34.733333,133.183333,34.733333
jp,denyenchofu,Denyenchofu,19,,35.583333,139.666667,35.583333
jp,deragawa,Deragawa,47,,26.367222,127.842778,26.367222
jp,derakawa,Derakawa,47,,26.367222,127.842778,26.367222
jp,deraku,Deraku,47,,26.601803,128.124014,26.601803
jp,deshima,Deshima,27,,32.733333,129.883333,32.733333
jp,deshima,Deshima,43,,34.183333,135.15,34.183333
jp,detacho,Detacho,19,,35.466667,139.65,35.466667
jp,detaribira,Detaribira,12,,43.233333,140.733333,43.233333
jp,detarihira,Detarihira,12,,43.233333,140.733333,43.233333
jp,deto,Deto,2,,39.333333,139.983333,39.333333
jp,deto,Deto,3,,41,141.383333,41
jp,dezaikecho,Dezaikecho,13,,34.666667,135.183333,34.666667
jp,dezima,Dezima,27,,32.733333,129.883333,32.733333
jp,dezima mati,Dezima Mati,27,,32.733333,129.883333,32.733333
jp,dira,Dira,47,,26.325556,127.816944,26.325556
jp,doai,Doai,6,,35.866667,136.366667,35.866667
jp,doai,Doai,10,,36.833333,138.966667,36.833333
jp,doba,Doba,24,,38.381381,141.177431,38.381381
jp,dochi,Dochi,24,,38.416807,141.195852,38.416807
jp,dodani,Dodani,13,,35.283333,134.55,35.283333
jp,dodoro,Dodoro,25,,32.5,131.683333,32.5
jp,dogatani,Dogatani,28,,34.6,135.883333,34.6
jp,dogawa,Dogawa,2,,40.066667,140.3,40.066667
jp,dogaya,Dogaya,28,,34.6,135.883333,34.6
jp,doge,Doge,15,,37.283333,136.75,37.283333
jp,dogizaka,Dogizaka,3,,40.9,140.333333,40.9
jp,dohaku,Dohaku,23,,34.85,136.55,34.85
jp,dohakumachi,Dohakumachi,23,,34.85,136.55,34.85
jp,doi,Doi,11,,34.566667,132.25,34.566667
jp,doi,Doi,20,,33.516667,133.916667,33.516667
jp,doi,Doi,31,,34.983333,134.266667,34.983333
jp,doi,Doi,37,,34.9,138.783333,34.9
jp,doi,Doi,45,,33.916667,132.316667,33.916667
jp,doinotani,Doinotani,20,,33.6,133.783333,33.6
jp,doitokoro,Doitokoro,12,,43.616667,143.45,43.616667
jp,doji,Doji,19,,35.576389,139.151111,35.576389
jp,dojima-nishimachi,Dojima-nishimachi,32,,34.683333,135.483333,34.683333
jp,dojo,Dojo,13,,34.866667,135.233333,34.866667
jp,dojo,Dojo,19,,35.538889,139.208889,35.538889
jp,dojokawahara,Dojokawahara,13,,34.866667,135.233333,34.866667
jp,dokawa,Dokawa,2,,40.066667,140.3,40.066667
jp,dokisaka,Dokisaka,3,,40.9,140.333333,40.9
jp,dokusawa,Dokusawa,44,,38.667778,140.334167,38.667778
jp,doma,Doma,47,,26.258611,127.7875,26.258611
jp,domeki,Domeki,24,,38.435804,141.040591,38.435804
jp,domui,Domui,47,,26.133611,127.722778,26.133611
jp,domura,Domura,26,,36.083333,138.483333,36.083333
jp,donari,Donari,39,,34.1,134.35,34.1
jp,donaru,Donaru,5,,33.916667,133.65,33.916667
jp,donoyama,Donoyama,24,,38.442631,141.119541,38.442631
jp,doren,Doren,18,,28.1,129.35,28.1
jp,dori,Dori,40,,35.666667,139.783333,35.666667
jp,dorogawa,Dorogawa,12,,43.6,141.533333,43.6
jp,dorokawa,Dorokawa,12,,43.6,141.533333,43.6
jp,doronishijo,Doronishijo,23,,34.533333,136.716667,34.533333
jp,doronoki,Doronoki,12,,43.233333,140.616667,43.233333
jp,dorosaki,Dorosaki,26,,36.766667,137.9,36.766667
jp,dorozaki,Dorozaki,26,,36.766667,137.9,36.766667
jp,dosaki,Dosaki,18,,32.016667,130.6,32.016667
jp,dosantsukuri,Dosantsukuri,24,,38.43005,141.034814,38.43005
jp,doshi,Doshi,19,,35.583333,139.216667,35.583333
jp,doshoda,Doshoda,44,,38.551111,140.400556,38.551111
jp,dosokohama,Dosokohama,29,,37.216667,138.316667,37.216667
jp,dotani,Dotani,13,,35.283333,134.55,35.283333
jp,dote-nagamachi,Dote-nagamachi,2,,39.716667,140.116667,39.716667
jp,dotezaki,Dotezaki,24,,38.4406,141.007752,38.4406
jp,dotocho,Dotocho,32,,34.533333,135.516667,34.533333
jp,doto,Doto,32,,34.533333,135.516667,34.533333
jp,dotomachi,Dotomachi,32,,34.533333,135.516667,34.533333
jp,dotoro,Dotoro,25,,32.5,131.683333,32.5
jp,doya,Doya,12,,42.639722,140.824167,42.639722
jp,doyama,Doyama,47,,26.138889,127.758889,26.138889
jp,doyaonsen,Doyaonsen,12,,42.566667,140.816667,42.566667
jp,doyukawa,Doyukawa,43,,33.833333,135.683333,33.833333
jp,dozaki,Dozaki,18,,32.016667,130.6,32.016667
jp,dozuki,Dozuki,1,,35.2,137.283333,35.2
jp,eba,Eba,11,,34.366667,132.433333,34.366667
jp,ebamachi,Ebamachi,11,,34.366667,132.433333,34.366667
jp,ebana,Ebana,8,,37.283333,140.166667,37.283333
jp,ebara,Ebara,4,,35.733333,140.2,35.733333
jp,ebara,Ebara,13,,35.466667,134.783333,35.466667
jp,ebaramachi,Ebaramachi,4,,35.733333,140.2,35.733333
jp,ebeotsu,Ebeotsu,12,,43.621389,141.938056,43.621389
jp,ebetsu,Ebetsu,12,133955,43.108056,141.550556,43.108056
jp,ebi,Ebi,1,,35.016667,137.55,35.016667
jp,ebi,Ebi,41,,35.283333,133.483333,35.283333
jp,ebie,Ebie,42,,36.766667,137.15,36.766667
jp,ebima,Ebima,1,,34.65,137.15,34.65
jp,ebina,Ebina,19,123667,35.381212,139.396515,35.381212
jp,ebishima,Ebishima,12,,43.85,141.883333,43.85
jp,ebisucho,Ebisucho,19,,35.483333,139.666667,35.483333
jp,ebisucho,Ebisucho,32,,34.5,135.4,34.5
jp,ebisudori,Ebisudori,7,,33.9,130.816667,33.9
jp,ebisu,Ebisu,5,,34.066667,133.004167,34.066667
jp,ebisu,Ebisu,12,,43.85,141.883333,43.85
jp,ebisu,Ebisu,29,,38.083333,138.433333,38.083333
jp,ebisu-machi,Ebisu-machi,19,,35.483333,139.666667,35.483333
jp,echigawa-cho,Echigawa-cho,35,,35.166667,136.2,35.166667
jp,echigawa,Echigawa,35,,35.166667,136.2,35.166667
jp,echikawa,Echikawa,35,,35.166667,136.2,35.166667
jp,echizembori,Echizembori,40,,35.666667,139.783333,35.666667
jp,echizenbori,Echizenbori,40,,35.666667,139.783333,35.666667
jp,echizen,Echizen,12,,42.783333,143.15,42.783333
jp,echizenhama,Echizenhama,29,,37.8,138.85,37.8
jp,eda,Eda,8,,37.166667,140.833333,37.166667
jp,edagawacho,Edagawacho,40,,35.65,139.816667,35.65
jp,edagawa,Edagawa,20,,33.65,133.333333,33.65
jp,edagawa,Edagawa,40,,35.653333,139.803333,35.653333
jp,edano,Edano,24,,37.95,140.8,37.95
jp,edobashi,Edobashi,40,,35.683333,139.766667,35.683333
jp,edo,Edo,40,,35.685,139.751389,35.685
jp,edo,Edo,45,,34.266667,131.35,34.266667
jp,edogawadai,Edogawadai,4,,35.901389,139.907222,35.901389
jp,edogawa,Edogawa,40,,35.659444,139.853333,35.659444
jp,edome-kami,Edome-kami,6,,36.116667,136.216667,36.116667
jp,edome-naka,Edome-naka,6,,36.133333,136.216667,36.133333
jp,edome-shimo,Edome-shimo,6,,36.133333,136.216667,36.133333
jp,edome-shita,Edome-shita,6,,36.133333,136.216667,36.133333
jp,edosaki,Edosaki,14,20801,35.95,140.316667,35.95
jp,edosawa,Edosawa,24,,38.459462,141.025947,38.459462
jp,egashira,Egashira,35,,35.116667,136.05,35.116667
jp,egi,Egi,11,,34.533333,133.033333,34.533333
jp,egita,Egita,41,,35.483333,133.85,35.483333
jp,egoda,Egoda,40,,35.733333,139.666667,35.733333
jp,ego,Ego,45,,34.083333,130.95,34.083333
jp,egotacho,Egotacho,40,,35.733333,139.666667,35.733333
jp,egota,Egota,40,,35.716667,139.666667,35.716667
jp,egotamachi,Egotamachi,40,,35.733333,139.666667,35.733333
jp,eguchi,Eguchi,27,,33.35,129.716667,33.35
jp,eguchiura,Eguchiura,18,,31.65,130.316667,31.65
jp,ehana,Ehana,8,,37.283333,140.166667,37.283333
jp,ehaoi,Ehaoi,12,,42.083333,143.016667,42.083333
jp,ehara,Ehara,13,,35.466667,134.783333,35.466667
jp,ehima,Ehima,1,,34.65,137.15,34.65
jp,ehinohe,Ehinohe,16,,40.206944,141.301667,40.206944
jp,ehu,Ehu,11,,34.366667,132.433333,34.366667
jp,eidaicho,Eidaicho,12,,44.009444,143.774444,44.009444
jp,eidai,Eidai,6,,35.658333,136.037222,35.658333
jp,ei,Ei,13,,34.466667,134.833333,34.466667
jp,ei,Ei,18,,31.266667,130.466667,31.266667
jp,eigashima,Eigashima,13,,34.666667,134.916667,34.666667
jp,eijima,Eijima,13,,34.666667,134.916667,34.666667
jp,eiko,Eiko,27,,34.616667,129.35,34.616667
jp,eishima,Eishima,13,,34.666667,134.916667,34.666667
jp,ejiri,Ejiri,24,,38.016667,140.8,38.016667
jp,ejiri,Ejiri,37,,35.016667,138.483333,35.016667
jp,ejiri,Ejiri,45,,34.083333,130.95,34.083333
jp,ejirimachi,Ejirimachi,37,,35.016667,138.483333,35.016667
jp,ekami,Ekami,27,,32.838333,128.9,32.838333
jp,eki,Eki,11,,34.533333,133.033333,34.533333
jp,ekitei,Ekitei,12,,43.271389,143.423889,43.271389
jp,ekodacho,Ekodacho,40,,35.716667,139.666667,35.716667
jp,ekoda,Ekoda,40,,35.716667,139.666667,35.716667
jp,eko,Eko,27,,34.616667,129.35,34.616667
jp,ema,Ema,23,,34.366667,136.333333,34.366667
jp,embetsu,Embetsu,12,,44.707222,141.788889,44.707222
jp,embu,Embu,8,,37.833333,140.383333,37.833333
jp,emi,Emi,4,,35.05,140.066667,35.05
jp,emi,Emi,31,,35.016667,134.216667,35.016667
jp,emoto,Emoto,5,,33.966667,133.516667,33.966667
jp,emukae,Emukae,27,,33.3,129.633333,33.3
jp,emukai,Emukai,27,,33.3,129.633333,33.3
jp,emukai-shikamachi,Emukai-Shikamachi,27,,33.266667,129.583333,33.266667
jp,ena,Ena,8,,36.966667,140.966667,36.966667
jp,ena,Ena,9,35689,35.447216,137.38332,35.447216
jp,ena,Ena,37,,34.75,138.783333,34.75
jp,ena,Ena,43,,33.983333,135.1,33.983333
jp,enami,Enami,24,,38.633333,141.216667,38.633333
jp,enbana,Enbana,24,,38.468865,141.077468,38.468865
jp,enbetsu,Enbetsu,12,,44.707222,141.788889,44.707222
jp,enbetu,Enbetu,12,,44.707222,141.788889,44.707222
jp,encho,Encho,11,,34.383333,133.083333,34.383333
jp,endatara,Endatara,12,,42.45,143.216667,42.45
jp,engaru,Engaru,12,,44.054167,143.522222,44.054167
jp,enichicho,Enichicho,11,,34.383333,133.083333,34.383333
jp,enichi,Enichi,11,,34.383333,133.083333,34.383333
jp,en-ichi-machi,En-ichi-machi,11,,34.383333,133.083333,34.383333
jp,eniwa-cho,Eniwa-cho,12,,42.883333,141.566667,42.883333
jp,eniwa,Eniwa,12,68771,42.883333,141.566667,42.883333
jp,eniwa-machi,Eniwa-machi,12,,42.883333,141.566667,42.883333
jp,eniwa-mura,Eniwa-mura,12,,42.883333,141.566667,42.883333
jp,eniwa-shi,Eniwa-shi,12,,42.883333,141.566667,42.883333
jp,enjitsu,Enjitsu,13,,34.2,134.8,34.2
jp,enkomu,Enkomu,12,,43.083333,144.5,43.083333
jp,enkyo-gumi,Enkyo-gumi,46,,35.616667,138.983333,35.616667
jp,enobi,Enobi,47,,26.388611,127.833333,26.388611
jp,enohama,Enohama,27,,32.983333,129.183333,32.983333
jp,enohi,Enohi,47,,26.388611,127.833333,26.388611
jp,enokizu,Enokizu,27,,32.983333,129.1,32.983333
jp,enomoto,Enomoto,5,,33.966667,133.516667,33.966667
jp,enosumi,Enosumi,33,,33.2,130.2,33.2
jp,enotsu,Enotsu,27,,32.983333,129.1,32.983333
jp,enoura,Enoura,11,,34.363333,133.193333,34.363333
jp,enoura,Enoura,19,,35.183333,139.133333,35.183333
jp,e-no-ura,E-no-ura,37,,35.05,138.883333,35.05
jp,enoura,Enoura,37,,35.05,138.883333,35.05
jp,enoura,Enoura,45,,33.933333,130.916667,33.933333
jp,entokomappu,Entokomappu,12,,43.583333,144.283333,43.583333
jp,enza,Enza,17,,34.283333,134,34.283333
jp,enzan,Enzan,46,25143,35.7,138.733333,35.7
jp,eoroshi,Eoroshi,12,,43.633333,142.633333,43.633333
jp,erabu,Erabu,47,,24.817222,125.1785,24.817222
jp,era,Era,6,,35.7,136.083333,35.7
jp,era,Era,12,,41.540278,139.990278,41.540278
jp,era,Era,30,,33.25,131.183333,33.25
jp,eramachi,Eramachi,12,,41.540278,139.990278,41.540278
jp,erimo,Erimo,12,,41.933889,143.239167,41.933889
jp,esa,Esa,12,,41.857222,140.123056,41.857222
jp,esahito,Esahito,12,,43.166667,145.3,43.166667
jp,esaki,Esaki,45,,34.633333,131.65,34.633333
jp,esamambetsu,Esamambetsu,12,,42.183333,143,42.183333
jp,esambe,Esambe,12,,45.316667,142.183333,45.316667
jp,esanuka,Esanuka,12,,45.233333,142.266667,45.233333
jp,esanupukara,Esanupukara,12,,45.233333,142.266667,45.233333
jp,esashi,Esashi,12,,41.857222,140.123056,41.857222
jp,esashika,Esashika,16,,40.25,141.4,40.25
jp,esashito,Esashito,12,,43.166667,145.3,43.166667
jp,esasi,Esasi,12,,41.857222,140.123056,41.857222
jp,eshu,Eshu,47,,26.350833,127.824444,26.350833
jp,esu,Esu,47,,26.350833,127.824444,26.350833
jp,esumi,Esumi,43,,33.5,135.6,33.5
jp,eta,Eta,8,,37.166667,140.833333,37.166667
jp,eta,Eta,21,,32.966667,130.6,32.966667
jp,etchu-dantai,Etchu-dantai,12,,42.433333,143.25,42.433333
jp,etchujimacho,Etchujimacho,40,,35.666667,139.8,35.666667
jp,etchujimamachi,Etchujimamachi,40,,35.666667,139.8,35.666667
jp,etchu-mombetsu,Etchu-Mombetsu,12,,42.433333,143.25,42.433333
jp,etobi,Etobi,12,,43.8,144.6,43.8
jp,etombi,Etombi,12,,43.8,144.6,43.8
jp,etomo,Etomo,36,,35.516667,132.983333,35.516667
jp,etomomachi,Etomomachi,36,,35.516667,132.983333,35.516667
jp,etsunagi,Etsunagi,16,,39.533333,141.65,39.533333
jp,ezaki,Ezaki,45,,34.633333,131.65,34.633333
jp,ezu,Ezu,47,,26.350833,127.824444,26.350833
jp,ezumi,Ezumi,36,,35.516667,132.966667,35.516667
jp,fakum,Fakum,15,,37.3,136.733333,37.3
jp,fintona,Fintona,47,,26.745011,128.175403,26.745011
jp,fiuruichi,Fiuruichi,11,,34.45,132.466667,34.45
jp,fubai,Fubai,47,,24.454103,124.194667,24.454103
jp,fube,Fube,36,,35.3,133.15,35.3
jp,fubushinai,Fubushinai,12,,43.166667,144.1,43.166667
jp,fuchaku,Fuchaku,47,,26.453056,127.804722,26.453056
jp,fuchi,Fuchi,23,,34.283333,136.516667,34.283333
jp,fuchinobe,Fuchinobe,19,,35.573889,139.375556,35.573889
jp,fuchinoe,Fuchinoe,33,,33.451667,130.0425,33.451667
jp,fuchinomoto,Fuchinomoto,27,,32.766667,128.65,32.766667
jp,fuchinoue,Fuchinoue,33,,33.451667,130.0425,33.451667
jp,fuchio-cho,Fuchio-cho,32,,34.85,135.45,34.85
jp,fuchisaki,Fuchisaki,17,,34.483333,134.191111,34.483333
jp,fuchizaki,Fuchizaki,17,,34.483333,134.191111,34.483333
jp,fuchu,Fuchu,11,50747,34.566667,133.233333,34.566667
jp,fuchu,Fuchu,39,,34.066667,134.466667,34.066667
jp,fuchu,Fuchu,40,240082,35.666667,139.483333,35.666667
jp,fudaba,Fudaba,16,,39.383333,141.816667,39.383333
jp,fudaba,Fudaba,20,,33.45,133.2,33.45
jp,fuda,Fuda,14,,36.083333,140.55,36.083333
jp,fudai,Fudai,16,,40,141.883333,40
jp,fudakake,Fudakake,19,,35.456667,139.207778,35.456667
jp,fudono,Fudono,25,,32.433333,131.05,32.433333
jp,fudonoguchi,Fudonoguchi,23,,34.55,136.333333,34.55
jp,fudonokuchi,Fudonokuchi,23,,34.55,136.333333,34.55
jp,fuefuki,Fuefuki,27,,33.183333,129.05,33.183333
jp,fuemabu,Fuemabu,12,,42.033333,143.116667,42.033333
jp,fuemai,Fuemai,12,,42.033333,143.116667,42.033333
jp,fuenna,Fuenna,47,,26.321389,127.8875,26.321389
jp,fuensan,Fuensan,47,,26.316667,127.75,26.316667
jp,fuenzan,Fuenzan,47,,26.316667,127.75,26.316667
jp,fugawa,Fugawa,40,,35.683333,139.8,35.683333
jp,fuhido,Fuhido,47,,26.856733,128.260361,26.856733
jp,fuhija,Fuhija,47,,26.37495,127.753889,26.37495
jp,fuhiji,Fuhiji,47,,26.727003,128.176583,26.727003
jp,fuhinuku,Fuhinuku,47,,26.520556,128.025833,26.520556
jp,fuhito,Fuhito,47,,26.856733,128.260361,26.856733
jp,fuie,Fuie,18,,31.383333,130.766667,31.383333
jp,fuija,Fuija,47,,26.320833,127.958611,26.320833
jp,fuishichiya,Fuishichiya,47,,26.304444,127.908889,26.304444
jp,fuishikiya,Fuishikiya,47,,26.304444,127.908889,26.304444
jp,fuitocho,Fuitocho,9,,36.166667,137.25,36.166667
jp,fuito,Fuito,9,,36.166667,137.25,36.166667
jp,fuitomachi,Fuitomachi,9,,36.166667,137.25,36.166667
jp,fujaku,Fujaku,47,,26.453056,127.804722,26.453056
jp,fujibaru,Fujibaru,47,,26.609722,127.951944,26.609722
jp,fujieda,Fujieda,37,132860,34.866667,138.266667,34.866667
jp,fujie,Fujie,13,,34.65,134.95,34.65
jp,fujie-shinden,Fujie-shinden,44,,39.033333,139.95,39.033333
jp,fuji,Fuji,12,,42.8,143.116667,42.8
jp,fuji,Fuji,37,240017,35.15,138.65,35.15
jp,fujigasaki,Fujigasaki,24,,38.533333,141.066667,38.533333
jp,fujihara,Fujihara,38,,36.85,139.733333,36.85
jp,fujiidera,Fujiidera,32,66856,34.563769,135.578629,34.563769
jp,fujii,Fujii,43,,33.9,135.183333,33.9
jp,fujii-shinden,Fujii-shinden,44,,39.033333,139.95,39.033333
jp,fujikawa,Fujikawa,1,,34.9,137.233333,34.9
jp,fujimicho,Fujimicho,40,,35.65,139.733333,35.65
jp,fujimi,Fujimi,12,,42.802778,140.686944,42.802778
jp,fujimi,Fujimi,34,108462,35.873739,139.555375,35.873739
jp,fujimino,Fujimino,34,,35.901961,139.524894,35.901961
jp,fujimiya,Fujimiya,37,,35.216667,138.616667,35.216667
jp,fujimoto,Fujimoto,21,,32.433333,130.65,32.433333
jp,fujino,Fujino,19,,35.606389,139.143056,35.606389
jp,fujino,Fujino,31,,34.816667,134.166667,34.816667
jp,fujinoike,Fujinoike,39,,33.866667,134.116667,33.866667
jp,fujinokawa,Fujinokawa,20,,33.15,132.833333,33.15
jp,fujinoki,Fujinoki,46,,35.583333,138.766667,35.583333
jp,fujinomaki,Fujinomaki,24,,38.432932,141.114072,38.432932
jp,fujinomiya,Fujinomiya,37,121517,35.216667,138.616667,35.216667
jp,fujinono,Fujinono,5,,33.9,132.866667,33.9
jp,fujinouchi,Fujinouchi,5,,33.9,132.866667,33.9
jp,fujinowaki,Fujinowaki,11,,34.15,132.5,34.15
jp,fujiokacho,Fujiokacho,37,,35.166667,138.733333,35.166667
jp,fujioka,Fujioka,10,63359,36.25,139.083333,36.25
jp,fujioka,Fujioka,37,,35.166667,138.733333,35.166667
jp,fujioka,Fujioka,38,,36.25,139.65,36.25
jp,fujisaka,Fujisaka,32,,34.816667,135.7,34.816667
jp,fujisaki,Fujisaki,3,,40.650833,140.491389,40.650833
jp,fujisaki,Fujisaki,44,,39.016667,139.883333,39.016667
jp,fujisato,Fujisato,1,,35.05,136.75,35.05
jp,fujisawa,Fujisawa,14,,36.116667,140.15,36.116667
jp,fujisawa,Fujisawa,16,,38.866667,141.35,38.866667
jp,fujisawa,Fujisawa,19,394630,35.341944,139.47,35.341944
jp,fujishima,Fujishima,3,,40.583333,141.233333,40.583333
jp,fujishima,Fujishima,44,,38.766667,139.9,38.766667
jp,fujishiro,Fujishiro,14,33149,35.916667,140.116667,35.916667
jp,fujita,Fujita,8,,37.866667,140.55,37.866667
jp,fujita,Fujita,21,,32.333333,130.85,32.333333
jp,fujita,Fujita,31,,34.933333,133.633333,34.933333
jp,fujita,Fujita,43,,33.9,135.183333,33.9
jp,fujitsuka,Fujitsuka,2,,39.85,138.95,39.85
jp,fujitsuka,Fujitsuka,24,,38.176111,140.952778,38.176111
jp,fujitsukahama,Fujitsukahama,29,,38.036612,139.303236,38.036612
jp,fujiuchibata,Fujiuchibata,45,,34.15,131,34.15
jp,fujiwara,Fujiwara,16,,39.633333,141.958333,39.633333
jp,fujiwara,Fujiwara,28,,34.5,135.8,34.5
jp,fujiwara,Fujiwara,38,,36.85,139.733333,36.85
jp,fujiwara-kyo,Fujiwara-kyo,28,,34.5,135.8,34.5
jp,fujiwara-no-kyo,Fujiwara-no-kyo,28,,34.5,135.8,34.5
jp,fujizawa,Fujizawa,16,,38.866667,141.35,38.866667
jp,fujizuka hama,Fujizuka hama,29,,38.036612,139.303236,38.036612
jp,fuju,Fuju,45,,34.133333,132.188333,34.133333
jp,fukabara,Fukabara,42,,36.816667,136.966667,36.816667
jp,fukabori,Fukabori,27,,32.683333,129.816667,32.683333
jp,fukada,Fukada,16,,40.116667,141.666667,40.116667
jp,fukae,Fukae,7,,33.5075,130.136667,33.5075
jp,fukae,Fukae,11,,34.3,132.3,34.3
jp,fukae,Fukae,13,,34.716667,135.3,34.716667
jp,fukae,Fukae,27,,32.688056,128.841944,32.688056
jp,fukae,Fukae,47,,24.454103,124.194667,24.454103
jp,fukagawa-botancho,Fukagawa-Botancho,40,,35.666667,139.8,35.666667
jp,fukagawa-edagawacho,Fukagawa-Edagawacho,40,,35.65,139.816667,35.65
jp,fukagawa-edakawacho,Fukagawa-Edakawacho,40,,35.65,139.816667,35.65
jp,fukagawa-eichujimacho,Fukagawa-Eichujimacho,40,,35.666667,139.8,35.666667
jp,fukagawa-etchujimacho,Fukagawa-Etchujimacho,40,,35.666667,139.8,35.666667
jp,fukagawa-etchujima,Fukagawa-Etchujima,40,,35.666667,139.8,35.666667
jp,fukagawa,Fukagawa,12,26152,43.708056,142.039167,43.708056
jp,fukagawa,Fukagawa,18,,30.633333,130.95,30.633333
jp,fukagawa-fukuzumicho,Fukagawa-Fukuzumicho,40,,35.666667,139.8,35.666667
jp,fukagawa-hamazonocho,Fukagawa-Hamazonocho,40,,35.65,139.8,35.65
jp,fukagawa-heikyucho,Fukagawa-Heikyucho,40,,35.666667,139.8,35.666667
jp,fukagawa-hiraicho,Fukagawa-Hiraicho,40,,35.666667,139.816667,35.666667
jp,fukagawa-ishijimacho,Fukagawa-Ishijimacho,40,,35.683333,139.816667,35.683333
jp,fukagawa-kasakicho,Fukagawa-Kasakicho,40,,35.666667,139.816667,35.666667
jp,fukagawa-kazakicho,Fukagawa-Kazakicho,40,,35.666667,139.816667,35.666667
jp,fukagawa-kiyosumicho,Fukagawa-Kiyosumicho,40,,35.683333,139.8,35.683333
jp,fukagawa-moricho,Fukagawa-Moricho,40,,35.683333,139.816667,35.683333
jp,fukagawa mori-machi,Fukagawa Mori-machi,40,,35.683333,139.816667,35.683333
jp,fukagawa-sagacho,Fukagawa-Sagacho,40,,35.683333,139.8,35.683333
jp,fukagawa-shinonomecho,Fukagawa-Shinonomecho,40,,35.65,139.8,35.65
jp,fukagawa-shiozakicho,Fukagawa-Shiozakicho,40,,35.666667,139.816667,35.666667
jp,fukagawa-shirakawacho,Fukagawa-Shirakawacho,40,,35.683333,139.8,35.683333
jp,fukagawa-susakibentencho,Fukagawa-Susakibentencho,40,,35.666667,139.816667,35.666667
jp,fukagawa-toyocho,Fukagawa-Toyocho,40,,35.666667,139.816667,35.666667
jp,fukagawa-toyosu,Fukagawa-Toyosu,40,,35.65,139.793333,35.65
jp,fukago,Fukago,18,,30.633333,130.95,30.633333
jp,fukahara,Fukahara,42,,36.816667,136.966667,36.816667
jp,fukahori,Fukahori,27,,32.683333,129.816667,32.683333
jp,fukai,Fukai,2,,39.266667,140.416667,39.266667
jp,fukai,Fukai,47,,24.454103,124.194667,24.454103
jp,fukami,Fukami,15,,37.3,136.733333,37.3
jp,fukanomi,Fukanomi,27,,32.883333,130.1,32.883333
jp,fukanuma,Fukanuma,24,,38.218611,140.976111,38.218611
jp,fukanuma,Fukanuma,44,,38.016667,140.183333,38.016667
jp,fukase,Fukase,25,,31.633333,131.25,31.633333
jp,fukase,Fukase,26,,36.233333,137.966667,36.233333
jp,fukashiba,Fukashiba,14,,35.916667,140.65,35.916667
jp,fukashibahama,Fukashibahama,14,,35.916667,140.7,35.916667
jp,fukashi,Fukashi,26,,36.233333,137.966667,36.233333
jp,fukata,Fukata,16,,40.116667,141.666667,40.116667
jp,fukaumi,Fukaumi,27,,32.883333,130.1,32.883333
jp,fukaura,Fukaura,3,,40.633333,139.916667,40.633333
jp,fukawa,Fukawa,11,,34.483333,132.533333,34.483333
jp,fukawa,Fukawa,14,,35.85,140.15,35.85
jp,fukawa,Fukawa,35,,34.916667,136.166667,34.916667
jp,fukawa,Fukawa,45,,34.366667,131.183333,34.366667
jp,fukawa-ichiba,Fukawa-ichiba,35,,34.916667,136.166667,34.916667
jp,fukaya,Fukaya,19,,35.437778,139.441944,35.437778
jp,fukaya,Fukaya,24,,38.470188,141.063047,38.470188
jp,fukaya,Fukaya,34,106597,36.2,139.283333,36.2
jp,fukaye,Fukaye,27,,32.688056,128.841944,32.688056
jp,fukaze,Fukaze,25,,31.633333,131.25,31.633333
jp,fuke,Fuke,18,,31.75,130.55,31.75
jp,fuke,Fuke,32,,34.316667,135.15,34.316667
jp,fukei,Fukei,18,,32.166667,130.6,32.166667
jp,fukiage,Fukiage,34,28334,36.1,139.45,36.1
jp,fukiaicho,Fukiaicho,13,,34.7,135.2,34.7
jp,fukiai,Fukiai,13,,34.7,135.2,34.7
jp,fukiya,Fukiya,31,,34.866667,133.466667,34.866667
jp,fukizua,Fukizua,34,,35.989722,139.440556,35.989722
jp,fukkiura,Fukkiura,24,,38.35,141.45,38.35
jp,fukkoshi,Fukkoshi,31,,34.5,133.5,34.5
jp,fukodzaki,Fukodzaki,27,,34.3,129.25,34.3
jp,fukoze,Fukoze,25,,32.083333,131.316667,32.083333
jp,fukro,Fukro,21,,32.183333,130.366667,32.183333
jp,fukuchi,Fukuchi,11,,34.4,133.158333,34.4
jp,fukuchiyama,Fukuchiyama,22,68736,35.3,135.116667,35.3
jp,fukuda,Fukuda,5,,34.158056,133.041111,34.158056
jp,fukuda,Fukuda,11,,34.298161,133.085792,34.298161
jp,fukuda,Fukuda,16,,40.216667,141.216667,40.216667
jp,fukuda,Fukuda,17,,34.533333,134.35,34.533333
jp,fukuda,Fukuda,27,,32.733333,129.816667,32.733333
jp,fukuda,Fukuda,36,,35.016667,132.383333,35.016667
jp,fukuda,Fukuda,37,,34.666667,137.883333,34.666667
jp,fukuda,Fukuda,44,,37.9,140.116667,37.9
jp,fukudamachi,Fukudamachi,24,,38.269167,140.955556,38.269167
jp,fukudamachi,Fukudamachi,44,,37.9,140.116667,37.9
jp,fukuda-shimo,Fukuda-shimo,45,,34.516667,131.6,34.516667
jp,fukude,Fukude,37,,34.666667,137.883333,34.666667
jp,fukue,Fukue,1,,34.616667,137.116667,34.616667
jp,fukue,Fukue,27,26637,32.688056,128.841944,32.688056
jp,fukuego,Fukuego,27,,32.688056,128.841944,32.688056
jp,fukugawa,Fukugawa,45,,34.066667,131.733333,34.066667
jp,fukugawa-ishijima,Fukugawa-Ishijima,40,,35.683333,139.816667,35.683333
jp,fukuhara,Fukuhara,8,,37.416667,140.383333,37.416667
jp,fukuhara,Fukuhara,41,,35.45,133.333333,35.45
jp,fukui,Fukui,12,,43.05,141.266667,43.05
jp,fukui,Fukui,32,,34.833333,135.55,34.833333
jp,fukui,Fukui,38,,36.316667,139.45,36.316667
jp,fukuihama,Fukuihama,7,,33.5,130.084167,33.5
jp,fukuinatari,Fukuinatari,31,,34.866667,133.9,34.866667
jp,fukuishicho,Fukuishicho,27,,33.15,129.733333,33.15
jp,fukui-shi,Fukui-shi,6,,36.065278,136.221945,36.065278
jp,fukuishi,Fukuishi,27,,33.15,129.733333,33.15
jp,fukuishimachi,Fukuishimachi,27,,33.15,129.733333,33.15
jp,fukujibaru,Fukujibaru,47,,26.609722,127.951944,26.609722
jp,fukuji,Fukuji,47,,26.609722,127.951944,26.609722
jp,fukukawa,Fukukawa,45,,34.066667,131.733333,34.066667
jp,fukukiura,Fukukiura,24,,38.35,141.45,38.35
jp,fukumachi,Fukumachi,32,,34.633333,135.466667,34.633333
jp,fukuma,Fukuma,7,43154,33.766667,130.466667,33.766667
jp,fukumaru,Fukumaru,7,,33.733333,130.616667,33.733333
jp,fukumi,Fukumi,27,,32.85,129.083333,32.85
jp,fukumitsu,Fukumitsu,12,,45.15,141.75,45.15
jp,fukumitsu,Fukumitsu,42,19535,36.55,136.866667,36.55
jp,fukumitsumachi,Fukumitsumachi,42,,36.55,136.866667,36.55
jp,fukumoto,Fukumoto,13,,35.05,134.766667,35.05
jp,fukumoto,Fukumoto,18,,31.2,130.65,31.2
jp,fukumoto,Fukumoto,21,,32.916667,130.783333,32.916667
jp,fukunaga,Fukunaga,7,,33.516667,130.154167,33.516667
jp,fukunaga,Fukunaga,12,,45.116667,141.8,45.116667
jp,fukuno,Fukuno,42,,36.583333,136.916667,36.583333
jp,fukunomoto,Fukunomoto,21,,32.916667,130.783333,32.916667
jp,fukunoura,Fukunoura,7,,33.57,130.1,33.57
jp,fukuoji,Fukuoji,25,,32.083333,131.316667,32.083333
jp,fukuoka,Fukuoka,1,,34.9,137.15,34.9
jp,fukuoka,Fukuoka,9,,35.566667,137.45,35.566667
jp,fukuoka,Fukuoka,13,,35.416667,134.6,35.416667
jp,fukuoka,Fukuoka,16,,40.269722,141.302778,40.269722
jp,fukuoka,Fukuoka,34,,35.866667,139.533333,35.866667
jp,fukuoka,Fukuoka,42,,36.7,136.933333,36.7
jp,fukuoka-shi,Fukuoka-shi,7,,33.606389,130.418056,33.606389
jp,fukura,Fukura,3,,41.316667,140.816667,41.316667
jp,fukura,Fukura,5,,32.920136,132.497371,32.920136
jp,fukura,Fukura,8,,37.383333,140.083333,37.383333
jp,fukura,Fukura,13,,34.25,134.716667,34.25
jp,fukura,Fukura,15,,37.083333,136.733333,37.083333
jp,fukura,Fukura,44,,39.066667,139.871667,39.066667
jp,fukur,Fukur,21,,32.183333,130.366667,32.183333
jp,fukuroda,Fukuroda,14,,36.75,140.383333,36.75
jp,fukuro,Fukuro,10,,36.733333,138.866667,36.733333
jp,fukuro,Fukuro,21,,32.183333,130.366667,32.183333
jp,fukuroi,Fukuroi,37,63046,34.75,137.916667,34.75
jp,fukurono,Fukurono,7,,33.333333,130.85,33.333333
jp,fukusada,Fukusada,43,,33.816667,135.566667,33.816667
jp,fukusaki,Fukusaki,27,,34.3,129.25,34.3
jp,fukusato,Fukusato,47,,24.752625,125.389222,24.752625
jp,fukushi,Fukushi,42,,36.8,137.066667,36.8
jp,fukushima,Fukushima,7,,33.2,130.566667,33.2
jp,fukushima,Fukushima,10,,36.25,138.933333,36.25
jp,fukushima,Fukushima,12,,41.474722,140.255278,41.474722
jp,fukushima,Fukushima,25,,31.466667,131.216667,31.466667
jp,fukushima,Fukushima,26,,35.85,137.7,35.85
jp,fukushima inamachi,Fukushima Inamachi,25,,31.466667,131.216667,31.466667
jp,fukushima-shi,Fukushima-shi,8,,37.75,140.467778,37.75
jp,fukushomachi,Fukushomachi,21,,32.5,130.616667,32.5
jp,fukusumi,Fukusumi,13,,35.066667,135.35,35.066667
jp,fukuta,Fukuta,44,,37.9,140.116667,37.9
jp,fukuura,Fukuura,3,,41.321389,140.807222,41.321389
jp,fukuura,Fukuura,5,,32.920136,132.497371,32.920136
jp,fukuura,Fukuura,6,,35.666667,136.083333,35.666667
jp,fukuura,Fukuura,15,,37.083333,136.733333,37.083333
jp,fukuura,Fukuura,36,,36.283333,133.2,36.283333
jp,fukuwara,Fukuwara,8,,37.416667,140.383333,37.416667
jp,fukuwatari,Fukuwatari,31,,34.866667,133.9,34.866667
jp,fukuyama,Fukuyama,11,383302,34.483333,133.366667,34.483333
jp,fukuyama,Fukuyama,12,,41.423889,140.105,41.423889
jp,fukuyama,Fukuyama,36,,34.416667,131.833333,34.416667
jp,fukuyama,Fukuyama,41,,35.383333,133.783333,35.383333
jp,fukuzaki,Fukuzaki,27,,34.3,129.25,34.3
jp,fukuzato,Fukuzato,47,,24.752625,125.389222,24.752625
jp,fukuzumicho,Fukuzumicho,40,,35.666667,139.8,35.666667
jp,fukuzumi,Fukuzumi,12,,43.766667,144.183333,43.766667
jp,fukuzumi,Fukuzumi,13,,35.066667,135.35,35.066667
jp,fumakunai,Fumakunai,16,,39.966667,141.216667,39.966667
jp,fumbe,Fumbe,12,,45.273333,141.039722,45.273333
jp,fumigaeshi,Fumigaeshi,24,,38.494123,141.17145,38.494123
jp,fumoto,Fumoto,18,,31.55,130.716667,31.55
jp,fumoto,Fumoto,21,,32.966667,130.5,32.966667
jp,fumoto,Fumoto,29,,37.683333,138.833333,37.683333
jp,funabara,Funabara,9,,36.2,137.033333,36.2
jp,funabashi,Funabashi,4,560754,35.693056,139.983333,35.693056
jp,funabashi,Funabashi,42,,36.7,137.316667,36.7
jp,funado,Funado,4,,35.916667,139.95,35.916667
jp,funadomari,Funadomari,12,,45.433333,141.033333,45.433333
jp,funaecho,Funaecho,23,,34.5,136.7,34.5
jp,funagata,Funagata,4,,35.016667,139.85,35.016667
jp,funagata,Funagata,44,,38.688889,140.319444,38.688889
jp,funagatoge,Funagatoge,20,,32.916667,132.833333,32.916667
jp,funagawa,Funagawa,2,,39.883333,139.85,39.883333
jp,funagawaminato,Funagawaminato,2,,39.883333,139.85,39.883333
jp,funagoshi,Funagoshi,23,,34.35,136.683333,34.35
jp,funahara,Funahara,9,,36.2,137.033333,36.2
jp,funahiki,Funahiki,8,,37.433333,140.583333,37.433333
jp,funaishikawa,Funaishikawa,14,,36.466667,140.566667,36.466667
jp,funaji,Funaji,28,,34.416667,135.716667,34.416667
jp,funakata,Funakata,4,,35.016667,139.85,35.016667
jp,funakatamachi,Funakatamachi,4,,35.016667,139.85,35.016667
jp,funakawa,Funakawa,2,,39.883333,139.85,39.883333
jp,funakawaminato,Funakawaminato,2,,39.883333,139.85,39.883333
jp,funaki,Funaki,35,,35.316667,136.066667,35.316667
jp,funaki,Funaki,45,,34.033333,131.216667,34.033333
jp,funaki,Funaki,47,,24.333333,123.733333,24.333333
jp,funakoshi-cho,Funakoshi-cho,19,,35.3,139.616667,35.3
jp,funakoshi,Funakoshi,2,,39.9,139.95,39.9
jp,funakoshi,Funakoshi,5,,32.948033,132.504822,32.948033
jp,funakoshi,Funakoshi,7,,33.551667,130.125833,33.551667
jp,funakoshi,Funakoshi,11,,34.366667,132.533333,34.366667
jp,funakoshi,Funakoshi,16,,39.433333,141.966667,39.433333
jp,funakoshi,Funakoshi,17,,34.235,133.62,34.235
jp,funakoshi,Funakoshi,19,,35.3,139.616667,35.3
jp,funakoshi,Funakoshi,23,,34.266667,136.866667,34.266667
jp,funakoshi,Funakoshi,24,,38.497863,141.100902,38.497863
jp,funakoshi,Funakoshi,36,,36.1,133.016667,36.1
jp,funakoshi,Funakoshi,47,,26.1525,127.7525,26.1525
jp,funakushi,Funakushi,47,,26.1525,127.7525,26.1525
jp,funamachi,Funamachi,32,,34.633333,135.466667,34.633333
jp,funamachi,Funamachi,44,,38.304167,140.290556,38.304167
jp,funama,Funama,12,,43.290278,140.600556,43.290278
jp,funamawari,Funamawari,27,,32.85,128.933333,32.85
jp,funamawarigo,Funamawarigo,27,,32.85,128.933333,32.85
jp,funamawashi,Funamawashi,27,,32.85,128.933333,32.85
jp,funami,Funami,42,,36.883333,137.55,36.883333
jp,funanchi,Funanchi,28,,34.416667,135.716667,34.416667
jp,funao,Funao,4,,35.783333,140.133333,35.783333
jp,funao,Funao,15,,37.066667,136.9,37.066667
jp,funaoka,Funaoka,2,,39.633333,140.316667,39.633333
jp,funaoka,Funaoka,3,,41.102778,140.626111,41.102778
jp,funaoka,Funaoka,24,,38.052778,140.767778,38.052778
jp,funaoka,Funaoka,41,,35.383333,134.233333,35.383333
jp,funato,Funato,4,,35.916667,139.95,35.916667
jp,funato,Funato,20,,33.416667,133.083333,33.416667
jp,funato,Funato,43,,34.25,135.316667,34.25
jp,funato,Funato,44,,38.1,139.733333,38.1
jp,funatomari,Funatomari,12,,45.436944,141.039722,45.436944
jp,funatsu,Funatsu,8,,37.4,140.133333,37.4
jp,funatsu,Funatsu,9,,36.333333,137.3,36.333333
jp,funatsu,Funatsu,21,,32.616667,130.533333,32.616667
jp,funatsu,Funatsu,27,,32.766667,130.033333,32.766667
jp,funatsu,Funatsu,43,,33.95,135.266667,33.95
jp,funatsu,Funatsu,46,,35.5,138.766667,35.5
jp,funauke,Funauke,47,,24.333333,123.733333,24.333333
jp,funauki,Funauki,47,,24.333333,123.733333,24.333333
jp,funaya,Funaya,22,,34.75,135.866667,34.75
jp,funayama,Funayama,37,,34.933333,138.766667,34.933333
jp,funayuki,Funayuki,18,,30.333333,130.666667,30.333333
jp,funegatoge,Funegatoge,20,,32.916667,132.833333,32.916667
jp,funehiki,Funehiki,8,23524,37.433333,140.583333,37.433333
jp,funkobe,Funkobe,12,,45.273333,141.039722,45.273333
jp,funodani,Funodani,43,,33.783333,135.766667,33.783333
jp,funo,Funo,15,,37.066667,136.9,37.066667
jp,funoo,Funoo,15,,37.066667,136.9,37.066667
jp,funyu,Funyu,38,,36.766667,139.783333,36.766667
jp,furabeshi,Furabeshi,4,,35.693056,139.983333,35.693056
jp,fura,Fura,4,,34.916667,139.816667,34.916667
jp,furano-cho,Furano-cho,12,,43.35,142.383333,43.35
jp,furano,Furano,12,25873,43.35,142.383333,43.35
jp,furano-machi,Furano-machi,12,,43.35,142.383333,43.35
jp,furaoi,Furaoi,12,,44.983333,141.8,44.983333
jp,furebetsu,Furebetsu,12,,44.3,142.45,44.3
jp,furembetsu,Furembetsu,12,,44.570278,141.787778,44.570278
jp,fureme,Fureme,12,,43.704444,144.189722,43.704444
jp,furene,Furene,12,,43.704444,144.189722,43.704444
jp,furen,Furen,12,,43.266667,145.183333,43.266667
jp,furenshigai,Furenshigai,12,,44.290278,142.450278,44.290278
jp,fureoi,Fureoi,12,,42.721389,141.875278,42.721389
jp,fureppu,Fureppu,12,,44.733333,142.766667,44.733333
jp,furnachi,Furnachi,28,,34.416667,135.716667,34.416667
jp,furube,Furube,12,,41.866667,141.133333,41.866667
jp,furubira,Furubira,12,,43.25,140.633333,43.25
jp,furuchi,Furuchi,11,,34.5,133.416667,34.5
jp,furudo,Furudo,24,,38.428234,141.129371,38.428234
jp,furudon,Furudon,44,,38.576389,140.439167,38.576389
jp,furuecho,Furuecho,18,,31.383333,130.766667,31.383333
jp,furue,Furue,5,,34.213056,133.111667,34.213056
jp,furue,Furue,17,,34.46,134.311667,34.46
jp,furue,Furue,18,,31.383333,130.766667,31.383333
jp,furue,Furue,23,,33.973889,136.21,33.973889
jp,furue,Furue,25,,32.7,131.816667,32.7
jp,furu,Furu,28,,34.6,135.85,34.6
jp,furugan,Furugan,47,,26.368589,127.751111,26.368589
jp,furugen,Furugen,47,,26.368589,127.751111,26.368589
jp,furugin,Furugin,47,,26.368589,127.751111,26.368589
jp,furu-ichiba,Furu-ichiba,19,,35.55,139.683333,35.55
jp,furuichiba,Furuichiba,34,,35.888333,139.535833,35.888333
jp,furuichicho,Furuichicho,32,,34.55,135.616667,34.55
jp,furuichi,Furuichi,11,,34.45,132.466667,34.45
jp,furuichi,Furuichi,13,,35.016667,135.15,35.016667
jp,furuichi,Furuichi,30,,33.483333,131.716667,33.483333
jp,furuichi,Furuichi,32,,34.55,135.616667,34.55
jp,furuichi,Furuichi,36,,35.15,133.083333,35.15
jp,furuichi,Furuichi,45,,34.383333,131.1,34.383333
jp,furuichimachi,Furuichimachi,40,,35.566667,139.683333,35.566667
jp,furujiku,Furujiku,14,,36.483333,140.516667,36.483333
jp,furujuku,Furujuku,14,,36.483333,140.516667,36.483333
jp,furukawabashi,Furukawabashi,32,,34.733333,135.6,34.733333
jp,furukawacho,Furukawacho,9,,36.233333,137.183333,36.233333
jp,furukawadori,Furukawadori,19,,35.533333,139.7,35.533333
jp,furukawa,Furukawa,8,,37.75,140.467778,37.75
jp,furukawa,Furukawa,9,,36.233333,137.183333,36.233333
jp,furukawa,Furukawa,12,,42.116667,143.066667,42.116667
jp,furukawa,Furukawa,24,76313,38.571667,140.955556,38.571667
jp,furukawa,Furukawa,27,,33.233333,129.65,33.233333
jp,furukawahashi,Furukawahashi,32,,34.733333,135.6,34.733333
jp,furuken,Furuken,47,,26.368589,127.751111,26.368589
jp,furukofu,Furukofu,42,,36.783333,137.05,36.783333
jp,furuko,Furuko,42,,36.783333,137.05,36.783333
jp,furukokufu,Furukokufu,42,,36.783333,137.05,36.783333
jp,furukuchi,Furukuchi,44,,38.735833,140.138333,38.735833
jp,furumachi,Furumachi,31,,35.116667,134.333333,35.116667
jp,furumagi,Furumagi,3,,40.666667,141.35,40.666667
jp,furumaki,Furumaki,3,,40.666667,141.35,40.666667
jp,furumichi,Furumichi,8,,37.433333,140.8,37.433333
jp,furumichi-machi,Furumichi-machi,40,,35.566667,139.683333,35.566667
jp,furumi,Furumi,36,,36.016667,133.033333,36.016667
jp,furumi,Furumi,47,,24.319807,123.908111,24.319807
jp,furumui,Furumui,12,,41.783333,141.116667,41.783333
jp,furu-myojin,Furu-myojin,42,,36.766667,137.133333,36.766667
jp,furumyojino,Furumyojino,42,,36.766667,137.133333,36.766667
jp,furunoushigawa,Furunoushigawa,3,,41.366667,141.366667,41.366667
