Country,City,AccentCity,Region,Population,Latitude,Longitude,Test3,Prefecture
jp,a,A,47,,26.606111,127.923889,26.606111,okinawa
jp,abamachi,Abamachi,27,,32.75,129.95,32.75,nagasaki
jp,abana,Abana,27,,32.75,129.95,32.75,nagasaki
jp,abashiri,Abashiri,12,42498,44.019722,144.258611,44.019722,hokkaido
jp,abasiri,Abasiri,12,,44.019722,144.258611,44.019722,hokkaido
jp,abatu,Abatu,12,,42.553889,140.757222,42.553889,hokkaido
jp,abe,Abe,39,,33.783333,134.633333,33.783333,tokushima
jp,abe,Abe,47,,26.537778,128.088333,26.537778,okinawa
jp,abeta,Abeta,23,,34.6,136.066667,34.6,mie
jp,abi,Abi,39,,33.783333,134.633333,33.783333,tokushima
jp,abika,Abika,19,,35.568611,139.218611,35.568611,kanagawa
jp,abiko,Abiko,4,131774,35.866667,140.016667,35.866667,chiba
jp,abira,Abira,12,,42.816667,141.833333,42.816667,hokkaido
jp,abo,Abo,23,,34.666667,136.166667,34.666667,mie
jp,aboshi,Aboshi,13,,34.783333,134.583333,34.783333,hyogo
jp,abu,Abu,39,,33.783333,134.633333,33.783333,tokushima
jp,abu,Abu,45,,34.5,131.466667,34.5,yamaguchi
jp,abu,Abu,47,,26.537778,128.088333,26.537778,okinawa
jp,abukanai,Abukanai,12,,44.2,143.183333,44.2,hokkaido
jp,aburakawa,Aburakawa,3,,40.85,140.7,40.85,aomori
jp,aburatsu,Aburatsu,12,,44.019722,144.258611,44.019722,hokkaido
jp,aburatsu,Aburatsu,25,,31.533333,131.35,31.533333,miyazaki
jp,abuta,Abuta,12,,42.553889,140.757222,42.553889,hokkaido
jp,abuura,Abuura,39,,33.783333,134.633333,33.783333,tokushima
jp,achigaya,Achigaya,37,,34.833333,138.2,34.833333,shizuoka
jp,achisu,Achisu,45,,34.003333,131.354444,34.003333,yamaguchi
jp,ada,Ada,47,,26.745125,128.315458,26.745125,okinawa
jp,adakai,Adakai,36,,35.433333,133.133333,35.433333,shimane
jp,adakaya,Adakaya,36,,35.433333,133.133333,35.433333,shimane
jp,adami,Adami,8,,37.483333,140.266667,37.483333,fukushima
jp,adaniya,Adaniya,47,,26.290556,127.786111,26.290556,okinawa
jp,adanniya,Adanniya,47,,26.290556,127.786111,26.290556,okinawa
jp,adashika,Adashika,23,,33.933333,136.15,33.933333,mie
jp,adasika,Adasika,23,,33.933333,136.15,33.933333,mie
jp,adawa,Adawa,23,,33.8,136.033333,33.8,mie
jp,adigasawa,Adigasawa,3,,40.774444,140.203056,40.774444,aomori
jp,adino,Adino,31,,34.466667,133.8,34.466667,okayama
jp,aeba,Aeba,35,,35.366667,136.033333,35.366667,shiga
jp,aenae,Aenae,12,,42.054722,139.442222,42.054722,hokkaido
jp,afuso,Afuso,47,,26.492778,127.885556,26.492778,okinawa
jp,afusu,Afusu,47,,26.492778,127.885556,26.492778,okinawa
jp,afutoromanai,Afutoromanai,12,,45.2,141.316667,45.2,hokkaido
jp,afuwa,Afuwa,47,,26.715883,128.284681,26.715883,okinawa
jp,afuwacha,Afuwacha,47,,26.242778,127.721944,26.242778,okinawa
jp,afuwari,Afuwari,47,,26.170556,127.340278,26.170556,okinawa
jp,aga,Aga,11,,34.233333,132.6,34.233333,hiroshima
jp,aga,Aga,41,,35.35,133.333333,35.35,tottori
jp,agacho,Agacho,11,,34.233333,132.6,34.233333,hiroshima
jp,agamachi,Agamachi,11,,34.233333,132.6,34.233333,hiroshima
jp,agami,Agami,27,,34.15,129.266667,34.15,nagasaki
jp,agano,Agano,29,,37.773916,139.221922,37.773916,niigata
jp,aganuma,Aganuma,8,,37.366667,140.433333,37.366667,fukushima
jp,agare,Agare,18,,28.316667,129.933333,28.316667,kagoshima
jp,agarie,Agarie,47,,26.583611,127.985278,26.583611,okinawa
jp,agari-e-kami,Agari-e-kami,47,,26.7075,127.803889,26.7075,okinawa
jp,agariemae,Agariemae,47,,26.7075,127.803889,26.7075,okinawa
jp,agarieue,Agarieue,47,,26.717222,127.806111,26.717222,okinawa
jp,agarii,Agarii,47,,26.583611,127.985278,26.583611,okinawa
jp,agari-ie,Agari-Ie,47,,26.717222,127.806111,26.717222,okinawa
jp,agarii-mae,Agarii-mae,47,,26.7075,127.803889,26.7075,okinawa
jp,agarii-mee,Agarii-mee,47,,26.7075,127.803889,26.7075,okinawa
jp,agarisuji,Agarisuji,47,,24.237424,124.015556,24.237424,okinawa
jp,agariuebaru,Agariuebaru,47,,26.685881,127.930658,26.685881,okinawa
jp,agariuibaru,Agariuibaru,47,,26.685881,127.930658,26.685881,okinawa
jp,agawa,Agawa,45,,34.333333,130.933333,34.333333,yamaguchi
jp,age,Age,2,,39.333333,140.45,39.333333,akita
jp,ageda,Ageda,47,,26.334444,127.806111,26.334444,okinawa
jp,agei,Agei,41,,35.45,133.85,35.45,tottori
jp,ageki,Ageki,23,,35.15,136.516667,35.15,mie
jp,agematsu,Agematsu,26,,35.783333,137.7,35.783333,nagano
jp,agena,Agena,47,,26.370556,127.851111,26.370556,okinawa
jp,ageno,Ageno,6,,35.71,136.093333,35.71,fukui
jp,agenosho,Agenosho,45,,33.883333,132.266667,33.883333,yamaguchi
jp,agenoshomachi,Agenoshomachi,45,,33.883333,132.266667,33.883333,yamaguchi
jp,agenoura,Agenoura,45,,33.9,132.283333,33.9,yamaguchi
jp,ageo,Ageo,34,219405,35.969722,139.588611,35.969722,saitama
jp,ageomura,Ageomura,34,,35.969722,139.588611,35.969722,saitama
jp,agida,Agida,47,,26.334444,127.806111,26.334444,okinawa
jp,aginaa,Aginaa,47,,26.370556,127.851111,26.370556,okinawa
jp,agina,Agina,47,,26.370556,127.851111,26.370556,okinawa
jp,ago,Ago,43,,33.6,135.483333,33.6,wakayama
jp,aguchi,Aguchi,31,,35.016667,133.633333,35.016667,okayama
jp,aguni,Aguni,47,,26.576389,127.221389,26.576389,okinawa
jp,agura,Agura,20,,33.516667,134.166667,33.516667,kochi
jp,aha,Aha,47,,26.715883,128.284681,26.715883,okinawa
jp,ahacha,Ahacha,47,,26.242778,127.721944,26.242778,okinawa
jp,ahare,Ahare,47,,26.170556,127.340278,26.170556,okinawa
jp,aharen,Aharen,47,,26.170556,127.340278,26.170556,okinawa
jp,aho,Aho,23,,34.666667,136.166667,34.666667,mie
jp,ahuso,Ahuso,47,,26.492778,127.885556,26.492778,okinawa
jp,ai,Ai,36,,35.133333,132.95,35.133333,shimane
jp,aiba,Aiba,35,,35.366667,136.033333,35.366667,shiga
jp,aibetsu,Aibetsu,12,,43.9,142.583333,43.9,hokkaido
jp,aiboshima,Aiboshima,12,,42.483333,143.433333,42.483333,hokkaido
jp,aida,Aida,5,,34.165278,133.036389,34.165278,ehime
jp,aida,Aida,26,,36.35,138,36.35,nagano
jp,aidamari,Aidamari,12,,42.116667,140.016667,42.116667,hokkaido
jp,aidomari,Aidomari,3,,41.5,139.366667,41.5,aomori
jp,aidomari,Aidomari,12,,44.183333,145.333333,44.183333,hokkaido
jp,aiga,Aiga,23,,34.1,136.216667,34.1,mie
jp,aigadani,Aigadani,23,,33.933333,136.1,33.933333,mie
jp,aigatani,Aigatani,23,,33.933333,136.1,33.933333,mie
jp,aihama,Aihama,4,,34.916667,139.816667,34.916667,chiba
jp,aihara,Aihara,19,,35.6,139.316667,35.6,kanagawa
jp,aika,Aika,36,,35.466667,132.95,35.466667,shimane
jp,aikamachi,Aikamachi,36,,35.466667,132.95,35.466667,shimane
jp,aikawa,Aikawa,6,,36.083333,136.033333,36.083333,fukui
jp,aikawa,Aikawa,16,,38.966667,141.216667,38.966667,iwate
jp,aikawa,Aikawa,24,,38.6,141.5,38.6,miyagi
jp,aikawa,Aikawa,29,,38.033333,138.25,38.033333,niigata
jp,aimata,Aimata,10,,36.716667,138.9,36.716667,gunma
jp,aimi,Aimi,1,,35.033333,137.016667,35.033333,aichi
jp,aimoto,Aimoto,13,,34.966667,135.15,34.966667,hyogo
jp,aimoto,Aimoto,42,,36.85,137.55,36.85,toyama
jp,aimoto-shin,Aimoto-shin,42,,36.866667,137.55,36.866667,toyama
jp,aino,Aino,27,,32.816667,130.15,32.816667,nagasaki
jp,ainohama,Ainohama,4,,34.916667,139.816667,34.916667,chiba
jp,ainokama,Ainokama,24,,38.124722,140.933333,38.124722,miyagi
jp,ainonai,Ainonai,12,,43.791944,143.756111,43.791944,hokkaido
jp,ainono,Ainono,2,,39.266667,140.616667,39.266667,akita
jp,ainoura,Ainoura,27,,33.2,129.65,33.2,nagasaki
jp,ainouracho,Ainouracho,27,,33.2,129.65,33.2,nagasaki
jp,ainoura-machi,Ainoura-machi,27,,33.2,129.65,33.2,nagasaki
jp,ainuma,Ainuma,12,,42.083333,140.066667,42.083333,hokkaido
jp,ainumanai,Ainumanai,12,,42.083333,140.066667,42.083333,hokkaido
jp,aioi,Aioi,12,,43.583333,143.983333,43.583333,hokkaido
jp,aioi,Aioi,13,32394,34.803611,134.468056,34.803611,hyogo
jp,aioicho,Aioicho,27,,33.166667,129.716667,33.166667,nagasaki
jp,aioicho,Aioicho,37,,35.016667,138.483333,35.016667,shizuoka
jp,aioimachi,Aioimachi,37,,35.016667,138.483333,35.016667,shizuoka
jp,aioi-shi,Aioi-shi,13,,34.803611,134.468056,34.803611,hyogo
jp,aioura,Aioura,45,,34,131.433333,34,yamaguchi
jp,airakuen,Airakuen,47,,26.672778,128.018333,26.672778,okinawa
jp,aire,Aire,27,,32.666667,130.3,32.666667,nagasaki
jp,aisai,Aisai,1,,35.163495,136.732218,35.163495,aichi
jp,aisari,Aisari,16,,39.25,141.116667,39.25,iwate
jp,aisaricho,Aisaricho,16,,39.25,141.116667,39.25,iwate
jp,aisarimachi,Aisarimachi,16,,39.25,141.116667,39.25,iwate
jp,aisarimatsu,Aisarimatsu,16,,39.25,141.116667,39.25,iwate
jp,aishima,Aishima,45,,34.5,131.283333,34.5,yamaguchi
jp,aita,Aita,26,,36.35,138,36.35,nagano
jp,aitomari,Aitomari,3,,41.5,139.366667,41.5,aomori
jp,aitomari,Aitomari,12,,44.183333,145.333333,44.183333,hokkaido
jp,aitsu,Aitsu,21,,32.5,130.433333,32.5,kumamoto
jp,aiuchi,Aiuchi,3,,41.05,140.366667,41.05,aomori
jp,aiura,Aiura,27,,33.2,129.65,33.2,nagasaki
jp,aizan,Aizan,12,,43.85,142.7,43.85,hokkaido
jp,aizu,Aizu,8,,37.55,139.983333,37.55,fukushima
jp,aizu,Aizu,21,,32.5,130.433333,32.5,kumamoto
jp,aizu-wakamatsu,Aizu-Wakamatsu,8,,37.491417,139.945456,37.491417,fukushima
jp,aja,Aja,47,,26.237675,127.691361,26.237675,okinawa
jp,aji,Aji,17,,34.383333,134.133333,34.383333,kagawa
jp,aji,Aji,24,,38.266667,141.466667,38.266667,miyagi
jp,ajigasawa,Ajigasawa,3,,40.774444,140.203056,40.774444,aomori
jp,ajihama,Ajihama,24,,38.266667,141.466667,38.266667,miyagi
jp,ajiki,Ajiki,4,,35.833333,140.233333,35.833333,chiba
jp,ajima,Ajima,8,,37.2,139.766667,37.2,fukushima
jp,ajima,Ajima,26,,35.516667,137.883333,35.516667,nagano
jp,ajimine,Ajimine,47,,26.2,127.65,26.2,okinawa
jp,ajinnine,Ajinnine,47,,26.2,127.65,26.2,okinawa
jp,ajino,Ajino,31,,34.466667,133.8,34.466667,okayama
jp,ajiro,Ajiro,5,,33.032972,132.404045,33.032972,ehime
jp,ajiro,Ajiro,27,,34.65,129.466667,34.65,nagasaki
jp,ajiro,Ajiro,37,,35.05,139.083333,35.05,shizuoka
jp,ajiro,Ajiro,41,,35.583333,134.3,35.583333,tottori
jp,ajirohama,Ajirohama,29,,38.005,139.253333,38.005,niigata
jp,ajisu,Ajisu,45,,34.003333,131.354444,34.003333,yamaguchi
jp,aka,Aka,11,,34.233333,132.6,34.233333,hiroshima
jp,aka,Aka,47,,26.188056,127.273889,26.188056,okinawa
jp,akabane,Akabane,1,,34.616667,137.2,34.616667,aichi
jp,akabane,Akabane,16,,39.266667,141.6,39.266667,iwate
jp,akabane,Akabane,21,,32.816667,131.183333,32.816667,kumamoto
jp,akabane,Akabane,40,,35.766667,139.716667,35.766667,tokyo
jp,akabanemachi,Akabanemachi,40,,35.766667,139.716667,35.766667,tokyo
jp,akabane-nishiku,Akabane-nishiku,1,,34.6,137.183333,34.6,aichi
jp,akabira,Akabira,12,14214,43.551389,142.053056,43.551389,hokkaido
jp,akadani,Akadani,25,,32.683333,131.2,32.683333,miyazaki
jp,akadomari,Akadomari,29,,37.866667,138.416667,37.866667,niigata
jp,akagami,Akagami,12,,41.466667,140.016667,41.466667,hokkaido
jp,akagawa,Akagawa,11,,34.816667,133.05,34.816667,hiroshima
jp,akagawa,Akagawa,12,,42.07,139.455,42.07,hokkaido
jp,akagina,Akagina,18,,28.45,129.683333,28.45,kagoshima
jp,akahane,Akahane,21,,32.816667,131.183333,32.816667,kumamoto
jp,akaho,Akaho,13,,34.75,134.4,34.75,hyogo
jp,akaho,Akaho,26,,35.733333,137.933333,35.733333,nagano
jp,akai,Akai,24,,38.447233,141.233549,38.447233,miyagi
jp,akai,Akai,34,,35.816667,139.75,35.816667,saitama
jp,akaigawa,Akaigawa,12,,43.083333,140.817222,43.083333,hokkaido
jp,akaike,Akaike,4,,35.8,140.45,35.8,chiba
jp,akaike,Akaike,7,,33.7,130.766667,33.7,fukuoka
jp,akaishi,Akaishi,3,,40.756111,140.168056,40.756111,aomori
jp,akaishi,Akaishi,12,,42.140278,139.52,42.140278,hokkaido
jp,akaishi,Akaishi,16,,39.366667,140.766667,39.366667,iwate
jp,akaishi,Akaishi,24,,38.209722,140.753056,38.209722,miyagi
jp,akaishi,Akaishi,26,,36.983333,138.516667,36.983333,nagano
jp,akaishicho,Akaishicho,39,,33.983333,134.616667,33.983333,tokushima
jp,akaishimachi,Akaishimachi,3,,40.75,140.166667,40.75,aomori
jp,akaisi,Akaisi,12,,42.140278,139.52,42.140278,hokkaido
jp,akaiwa,Akaiwa,12,,43.766667,141.366667,43.766667,hokkaido
jp,akaiwa,Akaiwa,34,,36.2,139.433333,36.2,saitama
jp,akakina,Akakina,18,,28.45,129.683333,28.45,kagoshima
jp,akakura,Akakura,29,,36.883333,138.183333,36.883333,niigata
jp,akakura,Akakura,38,,36.666667,139.45,36.666667,tochigi
jp,akakura,Akakura,44,,38.707222,140.551944,38.707222,yamagata
jp,akama,Akama,7,,33.8,130.583333,33.8,fukuoka
jp,akama,Akama,38,,36.266667,139.666667,36.266667,tochigi
jp,akamae,Akamae,16,,39.575,141.955,39.575,iwate
jp,akamasa,Akamasa,47,,26.335067,127.880708,26.335067,okinawa
jp,akamatsu,Akamatsu,26,,36.183333,137.8,36.183333,nagano
jp,akamatsu,Akamatsu,31,,35.133333,133.533333,35.133333,okayama
jp,akamatsu,Akamatsu,44,,38.673889,140.237778,38.673889,yamagata
jp,akamatsucho,Akamatsucho,33,,33.25,130.3,33.25,saga
jp,akamatsumachi,Akamatsumachi,33,,33.25,130.3,33.25,saga
jp,akamine,Akamine,47,,26.195572,127.661569,26.195572,okinawa
jp,akamizu,Akamizu,27,,32.933333,130.033333,32.933333,nagasaki
jp,akamuya,Akamuya,47,,26.335067,127.880708,26.335067,okinawa
jp,akana,Akana,36,,35,132.716667,35,shimane
jp,akanashi,Akanashi,26,,36.35,137.933333,36.35,nagano
jp,akane,Akane,30,,33.6,131.583333,33.6,oita
jp,akanehama,Akanehama,4,,35.655,140,35.655,chiba
jp,aka-niida,Aka-niida,24,,38.7,140.916667,38.7,miyagi
jp,aka-niita,Aka-niita,24,,38.7,140.916667,38.7,miyagi
jp,aka-nitta,Aka-nitta,24,,38.7,140.916667,38.7,miyagi
jp,akankohan,Akankohan,12,,43.425,144.101389,43.425,hokkaido
jp,akano,Akano,39,,33.883333,133.766667,33.883333,tokushima
jp,akanuma,Akanuma,8,,37.366667,140.433333,37.366667,fukushima
jp,akanuma,Akanuma,24,,38.357305,141.034873,38.357305,miyagi
jp,akao,Akao,27,,33,129.166667,33,nagasaki
jp,akaogi,Akaogi,18,,28.416667,129.633333,28.416667,kagoshima
jp,akaoka,Akaoka,20,,33.533333,133.716667,33.533333,kochi
jp,akaoki,Akaoki,18,,28.416667,129.633333,28.416667,kagoshima
jp,akare,Akare,18,,28.316667,129.933333,28.316667,kagoshima
jp,akaren,Akaren,18,,28.316667,129.933333,28.316667,kagoshima
jp,akasa,Akasa,18,,27.05,128.416667,27.05,kagoshima
jp,akasaka,Akasaka,1,,34.85,137.3,34.85,aichi
jp,akasaka,Akasaka,9,,35.383333,136.583333,35.383333,gifu
jp,akasaka,Akasaka,13,,34.716667,134.95,34.716667,hyogo
jp,akasaka,Akasaka,24,,38.288611,140.742222,38.288611,miyagi
jp,akasaka,Akasaka,40,,35.666667,139.716667,35.666667,tokyo
jp,akasaka,Akasaka,41,,35.516667,133.583333,35.516667,tottori
jp,akasaka,Akasaka,44,,38.838056,140.325278,38.838056,yamagata
jp,akasaka-aoyama-minamicho,Akasaka-Aoyama-minamicho,40,,35.65,139.716667,35.65,tokyo
jp,akasaka-cho,Akasaka-cho,9,,35.383333,136.583333,35.383333,gifu
jp,akasakacho,Akasakacho,9,,35.383333,136.583333,35.383333,gifu
jp,akasakada,Akasakada,16,,40.05,141,40.05,iwate
jp,akasaka-nagano,Akasaka-nagano,8,,37.05,140.516667,37.05,fukushima
jp,akasaka-nakano,Akasaka-nakano,8,,37.033333,140.5,37.033333,fukushima
jp,akasakata,Akasakata,16,,40.05,141,40.05,iwate
jp,akasaki,Akasaki,6,,35.687778,136.086667,35.687778,fukui
jp,akasaki,Akasaki,11,,34.316667,132.3,34.316667,hiroshima
jp,akasaki,Akasaki,15,,37.166667,136.683333,37.166667,ishikawa
jp,akasaki,Akasaki,16,,39.055,141.766667,39.055,iwate
jp,akasaki,Akasaki,21,,32.85,130.583333,32.85,kumamoto
jp,akasaki,Akasaki,41,,35.516667,133.633333,35.516667,tottori
jp,akashi,Akashi,11,,34.208333,132.878333,34.208333,hiroshima
jp,akashi,Akashi,13,297281,34.633333,134.983333,34.633333,hyogo
jp,akashi,Akashi,26,,36.983333,138.516667,36.983333,nagano
jp,akashicho,Akashicho,40,,35.666667,139.783333,35.666667,tokyo
jp,akashiki,Akashiki,47,,26.1925,127.358611,26.1925,okinawa
jp,akashina,Akashina,26,,36.35,137.933333,36.35,nagano
jp,akashinden,Akashinden,24,,38.7,140.916667,38.7,miyagi
jp,akasi,Akasi,13,,34.633333,134.983333,34.633333,hyogo
jp,akaska,Akaska,24,,38.288611,140.742222,38.288611,miyagi
jp,akasumi,Akasumi,15,,37.05,136.733333,37.05,ishikawa
jp,akatani,Akatani,25,,32.683333,131.2,32.683333,miyazaki
jp,akatsuka,Akatsuka,29,,37.816667,138.883333,37.816667,niigata
jp,akatsuka,Akatsuka,36,,35.05,132.6,35.05,shimane
jp,akautsu,Akautsu,24,,38.583333,141.233333,38.583333,miyagi
jp,akawa,Akawa,45,,34.333333,130.933333,34.333333,yamaguchi
jp,akayu,Akayu,44,,38.053611,140.188056,38.053611,yamagata
jp,akazaka,Akazaka,41,,35.516667,133.583333,35.516667,tottori
jp,akazaki,Akazaki,41,,35.516667,133.633333,35.516667,tottori
jp,akazuka,Akazuka,36,,35.05,132.6,35.05,shimane
jp,akechi,Akechi,9,,35.3,137.383333,35.3,gifu
jp,akeda,Akeda,47,,26.334444,127.806111,26.334444,okinawa
jp,akedo,Akedo,16,,40.3,141.633333,40.3,iwate
jp,akedo,Akedo,34,,36.216667,139.3,36.216667,saitama
jp,akeharu,Akeharu,5,,33.233333,132.7,33.233333,ehime
jp,akena,Akena,47,,26.370556,127.851111,26.370556,okinawa
jp,akeno,Akeno,23,,34.516667,136.666667,34.516667,mie
jp,akenobe,Akenobe,13,,35.266667,134.666667,35.266667,hyogo
jp,akeshina,Akeshina,26,,36.35,137.933333,36.35,nagano
jp,aketo,Aketo,16,,40.3,141.633333,40.3,iwate
jp,aketo,Aketo,34,,36.216667,139.3,36.216667,saitama
jp,akezuka,Akezuka,36,,35.05,132.6,35.05,shimane
jp,akiajiba,Akiajiba,12,,43.433333,145.933333,43.433333,hokkaido
jp,aki,Aki,20,20118,33.5,133.9,33.5,kochi
jp,akibetsu,Akibetsu,12,,43.266667,144.1,43.266667,hokkaido
jp,akifu,Akifu,6,,35.833333,136.566667,35.833333,fukui
jp,akii,Akii,20,,33.5,133.9,33.5,kochi
jp,akime,Akime,18,,31.35,130.2,31.35,kagoshima
jp,akimoto,Akimoto,8,,37.65,140.116667,37.65,fukushima
jp,akina,Akina,18,,28.166667,129.333333,28.166667,kagoshima
jp,akinari,Akinari,29,,36.983333,138.666667,36.983333,niigata
jp,akinokami,Akinokami,39,,34.2,134.583333,34.2,tokushima
jp,akinome,Akinome,18,,31.35,130.2,31.35,kagoshima
jp,akiruno,Akiruno,40,82022,35.749435,139.248346,35.749435,tokyo
jp,akisato,Akisato,13,,34.95,134.316667,34.95,hyogo
jp,akishima,Akishima,40,107926,35.720848,139.379991,35.720848,tokyo
jp,akita,Akita,2,320071,39.716667,140.116667,39.716667,akita
jp,akita,Akita,12,,43.533333,144.016667,43.533333,hokkaido
jp,akita-dantai,Akita-dantai,12,,43.533333,144.016667,43.533333,hokkaido
jp,akita-shi,Akita-shi,2,,39.718056,140.103334,39.718056,akita
jp,akitsu,Akitsu,11,,34.316667,132.821667,34.316667,hiroshima
jp,akiyoshi,Akiyoshi,45,,34.216667,131.283333,34.216667,yamaguchi
jp,akizuki,Akizuki,7,,33.466667,130.683333,33.466667,fukuoka
jp,akizuki,Akizuki,11,,34.233333,132.483333,34.233333,hiroshima
jp,akizuki,Akizuki,39,,34.1,134.316667,34.1,tokushima
jp,akizuki,Akizuki,43,,34.216667,135.2,34.216667,wakayama
jp,akizukimachi,Akizukimachi,7,,33.466667,130.683333,33.466667,fukuoka
jp,akkeshi,Akkeshi,12,,43.035556,144.8525,43.035556,hokkaido
jp,akkesi,Akkesi,12,,43.035556,144.8525,43.035556,hokkaido
jp,ako,Ako,9,,35.55,137.25,35.55,gifu
jp,ako,Ako,13,52016,34.75,134.4,34.75,hyogo
jp,ako,Ako,40,,34.083333,139.483333,34.083333,tokyo
jp,akoma,Akoma,19,,35.608611,139.205278,35.608611,kanagawa
jp,akotsu,Akotsu,24,,38.583333,141.233333,38.583333,miyagi
jp,akozu,Akozu,24,,38.583333,141.233333,38.583333,miyagi
jp,akubetsu,Akubetsu,12,,43.266667,144.1,43.266667,hokkaido
jp,akuchi,Akuchi,31,,35.016667,133.633333,35.016667,okayama
jp,akudo,Akudo,24,,38.495266,141.113793,38.495266,miyagi
jp,akunoura,Akunoura,27,,32.733333,129.85,32.733333,nagasaki
jp,akunouramachi,Akunouramachi,27,,32.733333,129.85,32.733333,nagasaki
jp,akura,Akura,20,,33.516667,134.166667,33.516667,kochi
jp,akutami,Akutami,9,,35.45,136.833333,35.45,gifu
jp,akuto,Akuto,16,,40.3,141.633333,40.3,iwate
jp,akutsu,Akutsu,10,,36.5,139,36.5,gunma
jp,ama,Ama,13,,34.2,134.733333,34.2,hyogo
jp,ama,Ama,36,,36.1,133.116667,36.1,shimane
jp,ama,Ama,47,,26.223056,127.289167,26.223056,okinawa
jp,amaariki,Amaariki,4,,35.466667,140.133333,35.466667,chiba
jp,amadareishi,Amadareishi,12,,41.483333,140.016667,41.483333,hokkaido
jp,amafune,Amafune,13,,35.033333,134.883333,35.033333,hyogo
jp,amagasaki,Amagasaki,13,442176,34.716667,135.416667,34.716667,hyogo
jp,amagase,Amagase,28,,34.2,135.983333,34.2,nara
jp,amagase,Amagase,30,,33.25,131.033333,33.25,oita
jp,amagi,Amagi,7,42312,33.416667,130.65,33.416667,fukuoka
jp,amagoya,Amagoya,15,,37.852461,136.922469,37.852461,ishikawa
jp,amahitai,Amahitai,16,,39.833333,141.766667,39.833333,iwate
jp,amaji,Amaji,20,,32.8,132.65,32.8,kochi
jp,amaki,Amaki,7,,33.416667,130.65,33.416667,fukuoka
jp,amamui,Amamui,30,,33.033333,131.916667,33.033333,oita
jp,amanogo,Amanogo,45,,33.95,130.916667,33.95,yamaguchi
jp,amanogocho,Amanogocho,45,,33.95,130.916667,33.95,yamaguchi
jp,amanome,Amanome,24,,38.116667,140.9,38.116667,miyagi
jp,amarube,Amarube,13,,35.65,134.55,35.65,hyogo
jp,amarume,Amarume,44,,38.838333,139.883333,38.838333,yamagata
jp,amase,Amase,29,,37.533333,138.666667,37.533333,niigata
jp,amasoko,Amasoko,47,,26.671111,127.985556,26.671111,okinawa
jp,amatsu,Amatsu,4,,35.116667,140.166667,35.116667,chiba
jp,amatu,Amatu,4,,35.116667,140.166667,35.116667,chiba
jp,amau,Amau,9,,36.266667,137.016667,36.266667,gifu
jp,amaya,Amaya,8,,37.566667,139.75,37.566667,fukushima
jp,amazaki,Amazaki,5,,34.240278,133.05,34.240278,ehime
jp,amaze,Amaze,29,,37.533333,138.666667,37.533333,niigata
jp,amazi,Amazi,20,,32.8,132.65,32.8,kochi
jp,ambo,Ambo,18,,30.316667,130.65,30.316667,kagoshima
jp,ameku,Ameku,47,,26.234722,127.676389,26.234722,okinawa
jp,amesoko,Amesoko,47,,26.671111,127.985556,26.671111,okinawa
jp,amesoku,Amesoku,47,,26.671111,127.985556,26.671111,okinawa
jp,ami,Ami,14,48257,36.033333,140.2,36.033333,ibaraki
jp,amidaji,Amidaji,43,,33.65,135.9,33.65,wakayama
jp,amihama,Amihama,31,,34.633333,133.933333,34.633333,okayama
jp,amike,Amike,47,,26.234722,127.676389,26.234722,okinawa
jp,amikiyaba,Amikiyaba,18,,28.466667,129.616667,28.466667,kagoshima
jp,amikoyaba,Amikoyaba,18,,28.466667,129.616667,28.466667,kagoshima
jp,amiku,Amiku,47,,26.234722,127.676389,26.234722,okinawa
jp,amino,Amino,22,,35.683333,135.033333,35.683333,kyoto
jp,aminohama,Aminohama,31,,34.633333,133.933333,34.633333,okayama
jp,aminoko,Aminoko,18,,28.166667,129.366667,28.166667,kagoshima
jp,amishiro,Amishiro,37,,35.05,139.083333,35.05,shizuoka
jp,amisuku,Amisuku,47,,26.671111,127.985556,26.671111,okinawa
jp,amo,Amo,6,,36.25,136.133333,36.25,fukui
jp,amo,Amo,9,,36.266667,137.016667,36.266667,gifu
jp,amuro,Amuro,47,,26.218056,127.751389,26.218056,okinawa
jp,amurogama,Amurogama,18,,28.216667,129.3,28.216667,kagoshima
jp,amurokama,Amurokama,18,,28.216667,129.3,28.216667,kagoshima
jp,amuru,Amuru,47,,26.218056,127.751389,26.218056,okinawa
jp,anabuki,Anabuki,39,,34.05,134.166667,34.05,tokushima
jp,anafuki,Anafuki,39,,34.05,134.166667,34.05,tokushima
jp,anaga,Anaga,13,,34.266667,134.666667,34.266667,hyogo
jp,anagamo,Anagamo,41,,35.316667,133.833333,35.316667,tottori
jp,anagaura,Anagaura,13,,34.266667,134.666667,34.266667,hyogo
jp,anamizu,Anamizu,15,,37.233333,136.9,37.233333,ishikawa
jp,anan,Anan,39,55422,33.916667,134.65,33.916667,tokushima
jp,ananohara,Ananohara,24,,38.840556,140.773611,38.840556,miyagi
jp,anasawa,Anasawa,38,,37.033333,139.95,37.033333,tochigi
jp,anazawa,Anazawa,38,,37.033333,139.95,37.033333,tochigi
jp,anden,Anden,2,,39.966667,139.85,39.966667,akita
jp,ando,Ando,16,,39.35,141.916667,39.35,iwate
jp,anebetsu,Anebetsu,12,,42.95,143.5,42.95,hokkaido
jp,anegasaki,Anegasaki,4,,35.48,140.033333,35.48,chiba
jp,anesaki,Anesaki,4,,35.48,140.033333,35.48,chiba
jp,anesakikaigan,Anesakikaigan,4,,35.483333,140.026667,35.483333,chiba
jp,anesaki-machi,Anesaki-machi,4,,35.48,140.033333,35.48,chiba
jp,anetai,Anetai,16,,39.1,141.183333,39.1,iwate
jp,aneyoshi,Aneyoshi,16,,39.516667,142.066667,39.516667,iwate
jp,anfuso,Anfuso,47,,26.492778,127.885556,26.492778,okinawa
jp,anfusu,Anfusu,47,,26.492778,127.885556,26.492778,okinawa
jp,ango,Ango,11,,34.276111,133.193333,34.276111,hiroshima
jp,anho,Anho,18,,30.316667,130.65,30.316667,kagoshima
jp,aniai,Aniai,2,,40,140.4,40,akita
jp,ani-maeda,Ani-maeda,2,,40.05,140.416667,40.05,akita
jp,anji,Anji,13,,34.983333,134.6,34.983333,hyogo
jp,anjo,Anjo,1,168664,34.95,137.083333,34.95,aichi
jp,anjo,Anjo,18,,30.65,131.05,30.65,kagoshima
jp,anjomachi,Anjomachi,1,,34.95,137.083333,34.95,aichi
jp,anju,Anju,22,,34.983333,135.816667,34.983333,kyoto
jp,ankiyaba,Ankiyaba,18,,28.466667,129.616667,28.466667,kagoshima
jp,anmizu,Anmizu,15,,37.233333,136.9,37.233333,ishikawa
jp,annaka,Annaka,10,48236,36.316667,138.9,36.316667,gunma
jp,annaka-kareki,Annaka-Kareki,27,,32.733333,130.366667,32.733333,nagasaki
jp,anno,Anno,18,,30.716667,131.066667,30.716667,kagoshima
jp,anraku,Anraku,18,,31.475,131.074167,31.475,kagoshima
jp,anrakuji,Anrakuji,42,,36.666667,136.85,36.666667,toyama
jp,anri,Anri,47,,26.254722,127.7875,26.254722,okinawa
jp,anshi,Anshi,13,,34.983333,134.6,34.983333,hyogo
jp,anshucho,Anshucho,22,,34.983333,135.816667,34.983333,kyoto
jp,antaroma,Antaroma,12,,43.85,142.7,43.85,hokkaido
jp,anto,Anto,6,,36.25,136.133333,36.25,fukui
jp,anto,Anto,16,,39.35,141.916667,39.35,iwate
jp,anza,Anza,47,,26.173889,127.820278,26.173889,okinawa
jp,anzama,Anzama,47,,26.173889,127.820278,26.173889,okinawa
jp,anzencho,Anzencho,19,,35.5,139.7,35.5,kanagawa
jp,anziyan,Anziyan,1,,34.95,137.083333,34.95,aichi
jp,ao,Ao,13,,34.866667,134.916667,34.866667,hyogo
jp,ao,Ao,15,,36.45,136.5,36.45,ishikawa
jp,ao,Ao,23,,34.666667,136.166667,34.666667,mie
jp,ao,Ao,27,,33.45,129.766667,33.45,nagasaki
jp,ao,Ao,42,,36.866667,136.983333,36.866667,toyama
jp,aodocho,Aodocho,40,,35.75,139.85,35.75,tokyo
jp,aogi,Aogi,17,,34.366667,133.691667,34.366667,kagawa
jp,aogu,Aogu,26,,36.6,137.883333,36.6,nagano
jp,aohama,Aohama,7,,33.95,131.016667,33.95,fukuoka
jp,aoicho,Aoicho,1,,35.166667,136.916667,35.166667,aichi
jp,aoicho,Aoicho,37,,34.766667,137.716667,34.766667,shizuoka
jp,aokata,Aokata,27,,32.983333,129.066667,32.983333,nagasaki
jp,aoki,Aoki,13,,34.283333,134.766667,34.283333,hyogo
jp,aoki,Aoki,17,,34.366667,133.691667,34.366667,kagawa
jp,aoki,Aoki,18,,31.616667,131.05,31.616667,kagoshima
jp,aoki,Aoki,24,,38.466965,141.179509,38.466965,miyagi
jp,aoki,Aoki,26,,36.366667,138.133333,36.366667,nagano
jp,aoki,Aoki,27,,32.95,129.016667,32.95,nagasaki
jp,aoki-gemi,Aoki-gemi,26,,36.35,137.883333,36.35,nagano
jp,aokijima,Aokijima,26,,36.616667,138.183333,36.616667,nagano
jp,aokijimamachi-aokijima,Aokijimamachi-Aokijima,26,,36.616667,138.183333,36.616667,nagano
jp,aoki-kemi,Aoki-kemi,26,,36.35,137.883333,36.35,nagano
jp,aoku,Aoku,26,,36.6,137.883333,36.6,nagano
jp,aomi,Aomi,29,,37.016667,137.8,37.016667,niigata
jp,aomori-shi,Aomori-shi,3,,40.824445,140.74,40.824445,aomori
jp,aonae,Aonae,12,,42.054722,139.442222,42.054722,hokkaido
jp,aonai,Aonai,12,,42.054722,139.442222,42.054722,hokkaido
jp,aone,Aone,24,,38.141944,140.533611,38.141944,miyagi
jp,aono,Aono,24,,38.540278,140.707222,38.540278,miyagi
jp,aono,Aono,31,,34.616667,133.466667,34.616667,okayama
jp,aonohara,Aonohara,19,,35.558056,139.190556,35.558056,kanagawa
jp,aose,Aose,18,,31.671667,129.716667,31.671667,kagoshima
jp,aoshima,Aoshima,5,,33.733333,132.483333,33.733333,ehime
jp,aoto,Aoto,18,,31.283333,130.45,31.283333,kagoshima
jp,aoto,Aoto,40,,35.75,139.85,35.75,tokyo
jp,aotocho,Aotocho,40,,35.75,139.85,35.75,tokyo
jp,aotomo,Aotomo,26,,36.6,137.883333,36.6,nagano
jp,aou,Aou,24,,38.533333,141.033333,38.533333,miyagi
jp,aouzu,Aouzu,29,,37.65,138.866667,37.65,niigata
jp,aoya,Aoya,41,,35.516667,133.983333,35.516667,tottori
jp,aoyagi,Aoyagi,9,,35.35,136.6,35.35,gifu
jp,aoyagicho,Aoyagicho,9,,35.35,136.6,35.35,gifu
jp,aoyama-minami,Aoyama-Minami,40,,35.65,139.716667,35.65,tokyo
jp,aoyama-minamicho,Aoyama-minamicho,40,,35.65,139.716667,35.65,tokyo
jp,aoyanagicho,Aoyanagicho,9,,35.35,136.6,35.35,gifu
jp,aozu,Aozu,29,,37.65,138.866667,37.65,niigata
jp,appetsu,Appetsu,12,,42.420556,142.225833,42.420556,hokkaido
jp,ara,Ara,47,,26.707778,127.8075,26.707778,okinawa
jp,arafune,Arafune,43,,33.533333,135.9,33.533333,wakayama
jp,aragachi,Aragachi,47,,26.117778,127.691111,26.117778,okinawa
jp,aragaki,Aragaki,47,,26.117778,127.691111,26.117778,okinawa
jp,aragasane,Aragasane,25,,31.85,130.9,31.85,miyazaki
jp,aragawa,Aragawa,2,,39.6,140.35,39.6,akita
jp,aragawamura,Aragawamura,3,,40.783333,140.733333,40.783333,aomori
jp,aragusuku,Aragusuku,47,,26.137711,127.742583,26.137711,okinawa
jp,arahama,Arahama,24,,38.041944,140.905278,38.041944,miyagi
jp,arahama,Arahama,29,,37.416667,138.583333,37.416667,niigata
jp,arai,Arai,13,,34.766667,134.8,34.766667,hyogo
jp,arai,Arai,24,,38.233333,140.95,38.233333,miyagi
jp,arai,Arai,29,27481,37.016667,138.25,37.016667,niigata
jp,arai,Arai,37,,34.683333,137.566667,34.683333,shizuoka
jp,araijuku,Araijuku,40,,35.583333,139.716667,35.583333,tokyo
jp,arakachi,Arakachi,47,,26.117778,127.691111,26.117778,okinawa
jp,arakaki,Arakaki,47,,26.117778,127.691111,26.117778,okinawa
jp,arakawa,Arakawa,2,,39.6,140.35,39.6,akita
jp,arakawa,Arakawa,3,,40.783333,140.733333,40.783333,aomori
jp,arakawa,Arakawa,20,,33.483333,133.45,33.483333,kochi
jp,arakawa,Arakawa,27,,32.658056,128.672778,32.658056,nagasaki
jp,arakawa,Arakawa,29,,37.883333,139.316667,37.883333,niigata
jp,arakawa,Arakawa,34,,35.95,139.033333,35.95,saitama
jp,arakawa,Arakawa,47,,26.65,128.25,26.65,okinawa
jp,arakawaguchi,Arakawaguchi,29,,38.483333,139.566667,38.483333,niigata
jp,arakawahama,Arakawahama,18,,31.733333,130.233333,31.733333,kagoshima
jp,arakawa-mura,Arakawa-mura,29,,37.533333,139.1,37.533333,niigata
jp,arakawa-oki,Arakawa-oki,14,,36.033333,140.166667,36.033333,ibaraki
jp,araki,Araki,18,,28.283333,129.916667,28.283333,kagoshima
jp,araki,Araki,34,,36.166667,139.483333,36.166667,saitama
jp,arako,Arako,28,,34.383333,135.933333,34.383333,nara
jp,arakohama,Arakohama,18,,31.733333,130.233333,31.733333,kagoshima
jp,arakura,Arakura,46,,35.483333,138.333333,35.483333,yamanashi
jp,aramachi,Aramachi,2,,39.666667,140.566667,39.666667,akita
jp,aramachi,Aramachi,29,,37.283333,138.716667,37.283333,niigata
jp,aramachi,Aramachi,44,,38.5575,140.451111,38.5575,yamagata
jp,aramata,Aramata,42,,36.916667,137.416667,36.916667,toyama
jp,aramato,Aramato,42,,36.916667,137.416667,36.916667,toyama
jp,araragi,Araragi,26,,35.55,137.633333,35.55,nagano
jp,ararakura,Ararakura,46,,35.6,139.05,35.6,yamanashi
jp,arari,Arari,37,,34.816667,138.766667,34.816667,shizuoka
jp,ar-arume,Ar-arume,44,,38.838333,139.883333,38.838333,yamagata
jp,arasato,Arasato,47,,24.729622,125.341222,24.729622,okinawa
jp,arasawa,Arasawa,2,,39.45,140.15,39.45,akita
jp,arasawa,Arasawa,29,,37.533333,139.1,37.533333,niigata
jp,arasawa,Arasawa,44,,38.15,139.733333,38.15,yamagata
jp,arase,Arase,2,,39.983333,140.4,39.983333,akita
jp,arase,Arase,7,,33.333333,130.833333,33.333333,fukuoka
jp,arashi,Arashi,5,,33.066667,132.483333,33.066667,ehime
jp,arashi,Arashi,19,,35.366667,139.05,35.366667,kanagawa
jp,arashika,Arashika,23,,33.933333,136.15,33.933333,mie
jp,arashima,Arashima,36,,35.433333,133.183333,35.433333,shimane
jp,arashinkai,Arashinkai,5,,34.083333,132.983333,34.083333,ehime
jp,arashiro,Arashiro,47,,26.137711,127.742583,26.137711,okinawa
jp,araso,Araso,25,,31.85,130.9,31.85,miyazaki
jp,arato,Arato,30,,32.9,132,32.9,oita
jp,arato,Arato,44,,38.184444,140.093056,38.184444,yamagata
jp,araya,Araya,2,,39.683333,140.083333,39.683333,akita
jp,araya,Araya,12,,41.416667,140.166667,41.416667,hokkaido
jp,araya,Araya,16,,40.316667,141.25,40.316667,iwate
jp,araya,Araya,24,,38.608611,140.975278,38.608611,miyagi
jp,araya,Araya,29,,37.766667,139.433333,37.766667,niigata
jp,araya,Araya,44,,38.65,139.85,38.65,yamagata
jp,arayacho,Arayacho,2,,39.683333,140.083333,39.683333,akita
jp,arayamachi,Arayamachi,2,,39.683333,140.083333,39.683333,akita
jp,araya-okawamachi,Araya-Okawamachi,2,,39.683333,140.1,39.683333,akita
jp,arayashiki,Arayashiki,8,,37.533333,140.133333,37.533333,fukushima
jp,arazato,Arazato,47,,24.729622,125.341222,24.729622,okinawa
jp,arazatu,Arazatu,47,,24.729622,125.341222,24.729622,okinawa
jp,arazawa,Arazawa,44,,38.15,139.733333,38.15,yamagata
jp,are,Are,27,,34.266667,129.2,34.266667,nagasaki
jp,arekinai,Arekinai,12,,43.1,144.566667,43.1,hokkaido
jp,ariake,Ariake,40,,35.635,139.786667,35.635,tokyo
jp,arida,Arida,43,,33.483333,135.733333,33.483333,wakayama
jp,arifuku,Arifuku,27,,32.9,128.95,32.9,nagasaki
jp,arifukugo,Arifukugo,27,,32.9,128.95,32.9,nagasaki
jp,arihata,Arihata,3,,41.133333,141.266667,41.133333,aomori
jp,arikabe,Arikabe,24,,38.866667,141.133333,38.866667,miyagi
jp,arikawa,Arikawa,27,,32.983333,129.116667,32.983333,nagasaki
jp,arikawago,Arikawago,27,,32.983333,129.116667,32.983333,nagasaki
jp,arima,Arima,13,,34.8,135.25,34.8,hyogo
jp,arimacho,Arimacho,13,,34.8,135.25,34.8,hyogo
jp,arimagawa,Arimagawa,29,,37.15,138.15,37.15,niigata
jp,arimatsu,Arimatsu,1,,35.066667,136.966667,35.066667,aichi
jp,arimizu,Arimizu,25,,31.85,131.133333,31.85,miyazaki
jp,arimune,Arimune,45,,34.333333,131.083333,34.333333,yamaguchi
jp,arimura,Arimura,18,,31.55,130.666667,31.55,kagoshima
jp,arioka,Arioka,20,,32.966667,132.833333,32.966667,kochi
jp,ariso,Ariso,45,,34.333333,131.083333,34.333333,yamaguchi
jp,arita,Arita,33,,33.183333,129.9,33.183333,saga
jp,arita,Arita,43,,33.483333,135.733333,33.483333,wakayama
jp,aritaki,Aritaki,23,,34.533333,136.7,34.533333,mie
jp,arito,Arito,3,,40.917778,141.191944,40.917778,aomori
jp,aritsu,Aritsu,47,,26.583333,128.133333,26.583333,okinawa
jp,ariumi,Ariumi,27,,32.683333,129.816667,32.683333,nagasaki
jp,arozu,Arozu,5,,34.205,133.092222,34.205,ehime
jp,arume,Arume,47,,26.604553,128.120625,26.604553,okinawa
jp,arumi,Arumi,27,,32.683333,129.816667,32.683333,nagasaki
jp,arumi,Arumi,47,,26.604553,128.120625,26.604553,okinawa
jp,asa,Asa,45,,34.066667,131.166667,34.066667,yamaguchi
jp,asa,Asa,47,,26.236111,127.306389,26.236111,okinawa
jp,asachino,Asachino,12,,45.205833,142.225556,45.205833,hokkaido
jp,asadatsu,Asadatsu,5,,33.383333,132.416667,33.383333,ehime
jp,asae,Asae,45,,33.966667,131.933333,33.966667,yamaguchi
jp,asagawa,Asagawa,8,,37.083333,140.416667,37.083333,fukushima
jp,asagaya,Asagaya,40,,35.7,139.65,35.7,tokyo
jp,asahi,Asahi,4,41721,35.716667,140.65,35.716667,chiba
jp,asahi,Asahi,5,,34.063611,132.998611,34.063611,ehime
jp,asahi,Asahi,6,,35.9,136.666667,35.9,fukui
jp,asahi,Asahi,12,,42.416667,143.4,42.416667,hokkaido
jp,asahi,Asahi,19,,35.533333,139.7,35.533333,kanagawa
jp,asahi,Asahi,24,,38.486685,141.171807,38.486685,miyagi
jp,asahi,Asahi,39,,33.866667,134.366667,33.866667,tokushima
jp,asahicho,Asahicho,11,,34.4,133.1,34.4,hiroshima
jp,asahicho,Asahicho,19,,35.533333,139.7,35.533333,kanagawa
jp,asahicho,Asahicho,27,,32.75,129.866667,32.75,nagasaki
jp,asahigawa,Asahigawa,12,,43.767778,142.370278,43.767778,hokkaido
jp,asahihama,Asahihama,12,,45.2,141.316667,45.2,hokkaido
jp,asahikawa,Asahikawa,12,356615,43.767778,142.370278,43.767778,hokkaido
jp,asahimachi,Asahimachi,3,,40.816667,140.733333,40.816667,aomori
jp,asahimachi,Asahimachi,11,,34.4,133.1,34.4,hiroshima
jp,asahimachi,Asahimachi,19,,35.533333,139.7,35.533333,kanagawa
jp,asahimachi,Asahimachi,27,,32.75,129.866667,32.75,nagasaki
jp,asahiyama,Asahiyama,12,,43.95,142.666667,43.95,hokkaido
jp,asai,Asai,24,,38.396706,141.147204,38.396706,miyagi
jp,asai,Asai,36,,34.9,132.1,34.9,shimane
jp,asaji,Asaji,30,,33,131.433333,33,oita
jp,asajino,Asajino,12,,45.205833,142.225556,45.205833,hokkaido
jp,asajinodaichi,Asajinodaichi,12,,45.183333,142.283333,45.183333,hokkaido
jp,asajirio,Asajirio,12,,45.205833,142.225556,45.205833,hokkaido
jp,asaka,Asaka,34,128061,35.804722,139.601944,35.804722,saitama
jp,asakaido,Asakaido,34,,35.857222,139.1875,35.857222,saitama
jp,asakawa,Asakawa,8,,37.083333,140.416667,37.083333,fukushima
jp,asakawa,Asakawa,18,,30.683333,131.066667,30.683333,kagoshima
jp,asakawa,Asakawa,39,,33.616667,134.366667,33.616667,tokushima
jp,asakawa,Asakawa,46,,35.5,138.766667,35.5,yamanashi
jp,asakayamacho,Asakayamacho,32,,34.583333,135.5,34.583333,osaka
jp,asakhigava,Asakhigava,12,,43.767778,142.370278,43.767778,hokkaido
jp,asakuragi,Asakuragi,43,,33.6,135.4,33.6,wakayama
jp,asama,Asama,18,,27.816667,128.883333,27.816667,kagoshima
jp,asama,Asama,26,,36.266667,137.983333,36.266667,nagano
jp,asamai,Asamai,2,,39.266667,140.483333,39.266667,akita
jp,asamigawa,Asamigawa,8,,37.2,140.983333,37.2,fukushima
jp,asamo,Asamo,27,,34.1,129.216667,34.1,nagasaki
jp,asamogawa,Asamogawa,22,,35.683333,135.016667,35.683333,kyoto
jp,asamokawa,Asamokawa,22,,35.683333,135.016667,35.683333,kyoto
jp,asamushi,Asamushi,3,,40.885556,140.866944,40.885556,aomori
jp,asanai,Asanai,2,,40.15,140.016667,40.15,akita
jp,asanai,Asanai,16,,39.816667,141.733333,39.816667,iwate
jp,asanami,Asanami,5,,34,132.8,34,ehime
jp,asanamihara,Asanamihara,5,,34,132.8,34,ehime
jp,asane,Asane,2,,40.15,140.016667,40.15,akita
jp,asanocho,Asanocho,19,,35.516667,139.733333,35.516667,kanagawa
jp,asaragi,Asaragi,43,,33.6,135.4,33.6,wakayama
jp,asari,Asari,12,,43.166667,141.066667,43.166667,hokkaido
jp,asari,Asari,36,,35.033333,132.266667,35.033333,shimane
jp,asaricho,Asaricho,12,,43.166667,141.066667,43.166667,hokkaido
jp,asari-machi,Asari-machi,12,,43.166667,141.066667,43.166667,hokkaido
jp,asato,Asato,18,,28.333333,129.483333,28.333333,kagoshima
jp,asato,Asato,47,,26.218725,127.6955,26.218725,okinawa
jp,asatu,Asatu,47,,26.254722,127.7875,26.254722,okinawa
jp,asebi,Asebi,11,,34.966667,133.05,34.966667,hiroshima
jp,asebi,Asebi,39,,33.866667,134.55,33.866667,tokushima
jp,asehi,Asehi,39,,33.866667,134.55,33.866667,tokushima
jp,aseni,Aseni,39,,33.866667,134.55,33.866667,tokushima
jp,asha,Asha,47,,26.237675,127.691361,26.237675,okinawa
jp,ashiarai,Ashiarai,42,,36.75,137.166667,36.75,toyama
jp,ashi,Ashi,47,,26.318611,127.834722,26.318611,okinawa
jp,ashibe,Ashibe,33,,33.791944,129.756111,33.791944,saga
jp,ashibetsu,Ashibetsu,12,19108,43.509722,142.185556,43.509722,hokkaido
jp,ashida,Ashida,26,,36.266667,138.316667,36.266667,nagano
jp,ashidambai,Ashidambai,18,,31.866667,130.733333,31.866667,kagoshima
jp,ashidambaru,Ashidambaru,18,,31.866667,130.733333,31.866667,kagoshima
jp,ashidanbaru,Ashidanbaru,18,,31.866667,130.733333,31.866667,kagoshima
jp,ashidanibara,Ashidanibara,18,,31.866667,130.733333,31.866667,kagoshima
jp,ashigaura,Ashigaura,27,,34.35,129.366667,34.35,nagasaki
jp,ashiharacho,Ashiharacho,32,,34.666667,135.5,34.666667,osaka
jp,ashikaga,Ashikaga,38,159673,36.333333,139.45,36.333333,tochigi
jp,ashikawa,Ashikawa,12,,45.2,141.733333,45.2,hokkaido
jp,ashikuraji,Ashikuraji,42,,36.583333,137.4,36.583333,toyama
jp,ashima,Ashima,26,,35.516667,137.883333,35.516667,nagano
jp,ashimi,Ashimi,27,,34.533333,129.45,34.533333,nagasaki
jp,ashimine,Ashimine,47,,26.2,127.65,26.2,okinawa
jp,ashimmi,Ashimmi,47,,26.2,127.65,26.2,okinawa
jp,ashino,Ashino,12,,45.3,142.2,45.3,hokkaido
jp,ashino,Ashino,38,,36.983333,140.166667,36.983333,tochigi
jp,ashinoura,Ashinoura,27,,32.75,129,32.75,nagasaki
jp,ashinoyu,Ashinoyu,19,,35.221389,139.038889,35.221389,kanagawa
jp,ashio,Ashio,38,,36.633333,139.45,36.633333,tochigi
jp,ashiro,Ashiro,37,,35.05,139.083333,35.05,shizuoka
jp,ashisaki,Ashisaki,42,,36.916667,137.433333,36.916667,toyama
jp,ashisawa,Ashisawa,44,,38.633333,140.366667,38.633333,yamagata
jp,ashita,Ashita,26,,36.266667,138.316667,36.266667,nagano
jp,ashitaka,Ashitaka,37,,35.116667,138.833333,35.116667,shizuoka
jp,ashitake,Ashitake,47,,26.2,127.65,26.2,okinawa
jp,ashito,Ashito,18,,27.033333,128.433333,27.033333,kagoshima
jp,ashiu,Ashiu,22,,35.3,135.7,35.3,kyoto
jp,ashiya,Ashiya,7,,33.883333,130.666667,33.883333,fukuoka
jp,ashiya,Ashiya,13,88574,34.733333,135.316667,34.733333,hyogo
jp,ashiyoro,Ashiyoro,12,,43.25,143.583333,43.25,hokkaido
jp,ashiyorobute,Ashiyorobute,12,,43.237222,143.542778,43.237222,hokkaido
jp,ashiyorobuto,Ashiyorobuto,12,,43.237222,143.542778,43.237222,hokkaido
jp,ashizaki,Ashizaki,42,,36.916667,137.433333,36.916667,toyama
jp,ashizawa,Ashizawa,44,,38.633333,140.366667,38.633333,yamagata
jp,ashoro,Ashoro,12,,43.237222,143.542778,43.237222,hokkaido
jp,ashorobuto,Ashorobuto,12,,43.237222,143.542778,43.237222,hokkaido
jp,ashu,Ashu,22,,35.3,135.7,35.3,kyoto
jp,asibe,Asibe,33,,33.791944,129.756111,33.791944,saga
jp,asikaga,Asikaga,38,,36.333333,139.45,36.333333,tochigi
jp,asio,Asio,38,,36.633333,139.45,36.633333,tochigi
jp,aso,Aso,6,,35.716667,136.1,35.716667,fukui
jp,aso,Aso,14,,35.983333,140.483333,35.983333,ibaraki
jp,aso,Aso,34,,35.933333,138.9,35.933333,saitama
jp,asozu,Asozu,6,,36,136.2,36,fukui
jp,assa,Assa,47,,26.236111,127.306389,26.236111,okinawa
jp,asshinai,Asshinai,12,,42.803056,143.809444,42.803056,hokkaido
jp,asso,Asso,43,,33.7,135.416667,33.7,wakayama
jp,asu,Asu,27,,34.216667,129.3,34.216667,nagasaki
jp,asuka,Asuka,44,,38.883333,139.916667,38.883333,yamagata
jp,asuke,Asuke,1,,35.133333,137.316667,35.133333,aichi
jp,asuke-cho,Asuke-cho,1,,35.133333,137.316667,35.133333,aichi
jp,asuna,Asuna,36,,34.866667,132.616667,34.866667,shimane
jp,asusaki,Asusaki,42,,36.916667,137.433333,36.916667,toyama
jp,atagoshita,Atagoshita,40,,35.65,139.65,35.65,tokyo
jp,ataka,Ataka,15,,36.416667,136.416667,36.416667,ishikawa
jp,atakamachi,Atakamachi,15,,36.416667,136.416667,36.416667,ishikawa
jp,ataka-shimmachi,Ataka-shimmachi,15,,36.4,136.4,36.4,ishikawa
jp,ataka-shin,Ataka-shin,15,,36.4,136.4,36.4,ishikawa
jp,ataku,Ataku,15,,36.416667,136.416667,36.416667,ishikawa
jp,atami,Atami,8,,37.483333,140.266667,37.483333,fukushima
jp,atami,Atami,37,40688,35.089444,139.068611,35.089444,shizuoka
jp,atami,Atami,40,,35.784722,139.0175,35.784722,tokyo
jp,atanniya,Atanniya,47,,26.290556,127.786111,26.290556,okinawa
jp,atara shi,Atara shi,28,,34.383333,135.933333,34.383333,nara
jp,atarashika,Atarashika,23,,33.933333,136.15,33.933333,mie
jp,ataruma,Ataruma,12,,43.85,142.7,43.85,hokkaido
jp,atashika,Atashika,23,,33.933333,136.15,33.933333,mie
jp,atawa,Atawa,23,,33.8,136.033333,33.8,mie
jp,atehama,Atehama,17,,34.524167,134.353333,34.524167,kagawa
jp,aterazaka,Aterazaka,24,,38.403936,141.092976,38.403936,miyagi
jp,aterazawa,Aterazawa,44,,38.375,140.205556,38.375,yamagata
jp,atisu,Atisu,45,,34.003333,131.354444,34.003333,yamaguchi
jp,atoega,Atoega,12,,42.95,144.633333,42.95,hokkaido
jp,atoeka,Atoeka,12,,42.95,144.633333,42.95,hokkaido
jp,atoichi,Atoichi,36,,34.95,132.216667,34.95,shimane
jp,atsu,Atsu,31,,34.583333,134.016667,34.583333,okayama
jp,atsubetsu,Atsubetsu,12,,42.420556,142.225833,42.420556,hokkaido
jp,atsuda,Atsuda,12,,43.391667,141.435556,43.391667,hokkaido
jp,atsuga,Atsuga,12,,42.420556,142.225833,42.420556,hokkaido
jp,atsugacho,Atsugacho,12,,42.420556,142.225833,42.420556,hokkaido
jp,atsugi,Atsugi,19,229203,35.438889,139.359722,35.438889,kanagawa
jp,atsu-hongo,Atsu-hongo,45,,34.1,131.133333,34.1,yamaguchi
jp,atsukeshi,Atsukeshi,12,,43.035556,144.8525,43.035556,hokkaido
jp,atsuki,Atsuki,19,,35.438889,139.359722,35.438889,kanagawa
jp,atsumi,Atsumi,44,,38.621667,139.6,38.621667,yamagata
jp,atsumigawa,Atsumigawa,44,,38.583333,139.7,38.583333,yamagata
jp,atsunai,Atsunai,12,,42.803056,143.809444,42.803056,hokkaido
jp,atsusayama,Atsusayama,26,,35.966667,138.666667,35.966667,nagano
jp,atsushio,Atsushio,8,,37.733333,139.883333,37.733333,fukushima
jp,atsuta,Atsuta,12,,43.391667,141.435556,43.391667,hokkaido
jp,atsuta,Atsuta,47,,26.291111,127.804444,26.291111,okinawa
jp,atsutabaru,Atsutabaru,47,,26.507222,127.893056,26.507222,okinawa
jp,atsutko,Atsutko,12,,43.222778,145.252778,43.222778,hokkaido
jp,atsutoko,Atsutoko,12,,43.222778,145.252778,43.222778,hokkaido
jp,attoko,Attoko,12,,43.222778,145.252778,43.222778,hokkaido
jp,attsubaru,Attsubaru,47,,26.583333,128.133333,26.583333,okinawa
jp,atu,Atu,31,,34.583333,134.016667,34.583333,okayama
jp,atugi,Atugi,19,,35.438889,139.359722,35.438889,kanagawa
jp,atukesi,Atukesi,12,,43.035556,144.8525,43.035556,hokkaido
jp,atumi,Atumi,44,,38.621667,139.6,38.621667,yamagata
jp,atunai,Atunai,12,,42.803056,143.809444,42.803056,hokkaido
jp,atuta,Atuta,12,,43.391667,141.435556,43.391667,hokkaido
jp,awa,Awa,12,,43.25,144.416667,43.25,hokkaido
jp,awa,Awa,47,,26.606111,127.923889,26.606111,okinawa
jp,awacha,Awacha,47,,26.242778,127.721944,26.242778,okinawa
jp,awa-dantai,Awa-dantai,12,,43.25,144.416667,43.25,hokkaido
jp,awaga,Awaga,13,,35.066667,134.783333,35.066667,hyogo
jp,awagamachi,Awagamachi,13,,35.066667,134.783333,35.066667,hyogo
jp,awagura,Awagura,15,,37.416667,137.1,37.416667,ishikawa
jp,awakura,Awakura,15,,37.416667,137.1,37.416667,ishikawa
jp,awano,Awano,26,,35.35,137.8,35.35,nagano
jp,awano,Awano,45,,34.35,130.966667,34.35,yamaguchi
jp,awao,Awao,15,,36.45,136.5,36.45,ishikawa
jp,awara,Awara,6,,36.216667,136.2,36.216667,fukui
jp,aware,Aware,47,,26.170556,127.340278,26.170556,okinawa
jp,awaren,Awaren,47,,26.170556,127.340278,26.170556,okinawa
jp,awase,Awase,47,,26.318611,127.834722,26.318611,okinawa
jp,awashi,Awashi,47,,26.318611,127.834722,26.318611,okinawa
jp,awashima,Awashima,17,,34.271667,133.636667,34.271667,kagawa
jp,awasu,Awasu,42,,36.583333,137.45,36.583333,toyama
jp,awatabe,Awatabe,6,,35.916667,136.233333,35.916667,fukui
jp,awazu,Awazu,15,,36.333333,136.45,36.333333,ishikawa
jp,awazumachi,Awazumachi,15,,36.333333,136.45,36.333333,ishikawa
jp,awazu-machi,Awazu-machi,35,,34.983333,135.9,34.983333,shiga
jp,awo,Awo,15,,36.45,136.5,36.45,ishikawa
jp,aya,Aya,25,,31.983333,131.266667,31.983333,miyazaki
jp,ayabe,Ayabe,22,37613,35.3,135.25,35.3,kyoto
jp,ayamachi,Ayamachi,25,,31.983333,131.266667,31.983333,miyazaki
jp,ayase,Ayase,19,82613,35.386462,139.417373,35.386462,kanagawa
jp,ayashi,Ayashi,24,,38.266667,140.766667,38.266667,miyagi
jp,ayudomari,Ayudomari,12,,42.116667,140.016667,42.116667,hokkaido
jp,ayukai,Ayukai,44,,38.183333,140.083333,38.183333,yamagata
jp,ayukawa,Ayukawa,6,,36.083333,136.033333,36.083333,fukui
jp,ayukawa,Ayukawa,12,,42.116667,140.016667,42.116667,hokkaido
jp,ayukawa,Ayukawa,24,,38.3,141.516667,38.3,miyagi
jp,ayukawacho,Ayukawacho,6,,36.083333,136.033333,36.083333,fukui
jp,ayukawahama,Ayukawahama,24,,38.3,141.516667,38.3,miyagi
jp,aza,Aza,47,,26.237675,127.691361,26.237675,okinawa
jp,azabu,Azabu,34,,35.933333,138.9,35.933333,saitama
jp,azabu-fujimicho,Azabu-Fujimicho,40,,35.65,139.733333,35.65,tokyo
jp,azagawa,Azagawa,46,,35.5,138.766667,35.5,yamanashi
jp,azaka,Azaka,18,,30.683333,131.066667,30.683333,kagoshima
jp,azako,Azako,18,,30.683333,131.066667,30.683333,kagoshima
jp,azama,Azama,47,,26.173889,127.820278,26.173889,okinawa
jp,azamo,Azamo,27,,34.1,129.216667,34.1,nagasaki
jp,azamui,Azamui,30,,33.033333,131.916667,33.033333,oita
jp,azanai,Azanai,16,,39.816667,141.733333,39.816667,iwate
jp,azena,Azena,23,,34.283333,136.883333,34.283333,mie
jp,azetsu,Azetsu,27,,32.95,129.116667,32.95,nagasaki
jp,azigasawa,Azigasawa,3,,40.774444,140.203056,40.774444,aomori
jp,azino,Azino,31,,34.466667,133.8,34.466667,okayama
jp,aziro,Aziro,37,,35.05,139.083333,35.05,shizuoka
jp,azisu,Azisu,45,,34.003333,131.354444,34.003333,yamaguchi
jp,azo,Azo,6,,35.716667,136.1,35.716667,fukui
jp,azu,Azu,19,,35.602222,139.217778,35.602222,kanagawa
jp,azu,Azu,27,,34.216667,129.3,34.216667,nagasaki
jp,azu,Azu,31,,34.583333,134.016667,34.583333,okayama
jp,azuchi,Azuchi,27,,33.483333,129.533333,33.483333,nagasaki
jp,azukisawa,Azukisawa,40,,35.766667,139.7,35.766667,tokyo
jp,azukizawa,Azukizawa,40,,35.766667,139.7,35.766667,tokyo
jp,azuma,Azuma,10,,36.5,138.5,36.5,gunma
jp,azuma,Azuma,12,,42.721389,141.875278,42.721389,hokkaido
jp,azuma,Azuma,40,,35.7,139.8,35.7,tokyo
jp,azumabashi,Azumabashi,40,,35.7,139.8,35.7,tokyo
jp,azumacho,Azumacho,12,,42.333333,141.016667,42.333333,hokkaido
jp,azumaiokozan,Azumaiokozan,10,,36.5,138.5,36.5,gunma
jp,azuma-shigai,Azuma-shigai,12,,42.721389,141.875278,42.721389,hokkaido
jp,azumi,Azumi,13,,35.116667,134.583333,35.116667,hyogo
jp,azumi,Azumi,26,,36.133333,137.716667,36.133333,nagano
jp,azumino,Azumino,26,,36.288155,137.887055,36.288155,nagano
jp,azusabashi,Azusabashi,26,,36.25,137.916667,36.25,nagano
jp,azusaboshi,Azusaboshi,26,,36.25,137.916667,36.25,nagano
jp,azusawa,Azusawa,40,,35.766667,139.7,35.766667,tokyo
jp,azusawacho,Azusawacho,40,,35.766667,139.7,35.766667,tokyo
jp,azusayama,Azusayama,26,,35.966667,138.666667,35.966667,nagano
jp,azusugi,Azusugi,27,,34.216667,129.3,34.216667,nagasaki
jp,azuti,Azuti,27,,33.483333,129.533333,33.483333,nagasaki
jp,baba,Baba,8,,37.85,140.65,37.85,fukushima
jp,baba,Baba,23,,34.65,136.55,34.65,mie
jp,baba,Baba,24,,38.267778,140.641944,38.267778,miyagi
jp,baba,Baba,26,,36.966667,138.45,36.966667,nagano
jp,baba,Baba,31,,34.933333,133.333333,34.933333,okayama
jp,baba,Baba,36,,34.9,132.55,34.9,shimane
jp,baba,Baba,39,,33.85,134.583333,33.85,tokushima
jp,baba,Baba,41,,35.483333,134.083333,35.483333,tottori
jp,baba,Baba,47,,26.49,127.843056,26.49,okinawa
jp,babacho,Babacho,32,,34.683333,135.516667,34.683333,osaka
jp,babura,Babura,41,,35.483333,134.083333,35.483333,tottori
jp,bagaura,Bagaura,15,,37.166667,137.033333,37.166667,ishikawa
jp,bagumbetsu,Bagumbetsu,12,,43.05,140.716667,43.05,hokkaido
jp,bai,Bai,18,,31.166667,130.766667,31.166667,kagoshima
jp,bajo,Bajo,30,,33.466667,131.5,33.466667,oita
jp,bakkai,Bakkai,12,,45.304444,141.621667,45.304444,hokkaido
jp,bakurocho,Bakurocho,3,,40.616667,140.466667,40.616667,aomori
jp,bakurocho,Bakurocho,15,,36.566667,136.65,36.566667,ishikawa
jp,bakuro-cho,Bakuro-cho,41,,35.433333,133.35,35.433333,tottori
jp,bakuromachi,Bakuromachi,3,,40.616667,140.466667,40.616667,aomori
jp,bakuromachi,Bakuromachi,41,,35.433333,133.35,35.433333,tottori
jp,bama,Bama,47,,26.322222,127.951389,26.322222,okinawa
jp,bamba,Bamba,19,,35.517778,139.225278,35.517778,kanagawa
jp,bamba,Bamba,23,,34.65,136.55,34.65,mie
jp,bamba,Bamba,26,,36.966667,138.45,36.966667,nagano
jp,bamba,Bamba,38,,36.45,139.466667,36.45,tochigi
jp,bamba-cho,Bamba-cho,32,,34.683333,135.516667,34.683333,osaka
jp,bammachi,Bammachi,26,,36.233333,138.433333,36.233333,nagano
jp,banbanchi,Banbanchi,30,,33.666667,131.516667,33.666667,oita
jp,banchi,Banchi,47,,26.726492,128.164597,26.726492,okinawa
jp,bancho,Bancho,40,,35.683333,139.75,35.683333,tokyo
jp,banda,Banda,4,,34.966667,139.783333,34.966667,chiba
jp,banda,Banda,31,,34.566667,134.016667,34.566667,okayama
jp,bandai-cho,Bandai-cho,39,,34.066667,134.566667,34.066667,tokushima
jp,bandaimachi,Bandaimachi,39,,34.066667,134.566667,34.066667,tokushima
jp,bando,Bando,14,,36.069966,139.867051,36.069966,ibaraki
jp,bando,Bando,39,,34.15,134.5,34.15,tokushima
jp,bange,Bange,8,,37.566667,139.816667,37.566667,fukushima
jp,banjo,Banjo,28,,34.633333,135.8,34.633333,nara
jp,bankei,Bankei,12,,42.583333,141.033333,42.583333,hokkaido
jp,bannaguro,Bannaguro,12,,43.168611,141.321111,43.168611,hokkaido
jp,bannaguru,Bannaguru,12,,43.168611,141.321111,43.168611,hokkaido
jp,bansho,Bansho,34,,36,139.3,36,saitama
jp,banta,Banta,31,,34.566667,134.016667,34.566667,okayama
jp,banto,Banto,39,,34.15,134.5,34.15,tokushima
jp,banya,Banya,46,,35.733333,138.8,35.733333,yamanashi
jp,banyagamine,Banyagamine,18,,30.65,130.983333,30.65,kagoshima
jp,banyamai,Banyamai,12,,44.433333,141.333333,44.433333,hokkaido
jp,banyamari,Banyamari,12,,44.433333,141.333333,44.433333,hokkaido
jp,banyamine,Banyamine,18,,30.65,130.983333,30.65,kagoshima
jp,banzai,Banzai,39,,34.133333,134.466667,34.133333,tokushima
jp,barajima,Barajima,16,,39.75,141.133333,39.75,iwate
jp,barato,Barato,12,,43.166667,141.35,43.166667,hokkaido
jp,barazaki,Barazaki,44,,38.383333,140.4,38.383333,yamagata
jp,baren,Baren,47,,26.183889,127.771111,26.183889,okinawa
jp,barshima,Barshima,16,,39.75,141.133333,39.75,iwate
jp,basui,Basui,11,,34.966667,133.05,34.966667,hiroshima
jp,baten,Baten,47,,26.183889,127.771111,26.183889,okinawa
jp,bato,Bato,38,,36.733333,140.166667,36.733333,tochigi
jp,bebetsu,Bebetsu,12,,43.683333,142.4,43.683333,hokkaido
jp,befu,Befu,13,,34.716667,134.85,34.716667,hyogo
jp,behu,Behu,5,,34.08,132.9,34.08,ehime
jp,bekkai,Bekkai,12,,43.375833,145.286667,43.375833,hokkaido
jp,bekkari,Bekkari,12,,43.833333,141.483333,43.833333,hokkaido
jp,bekku,Bekku,15,,36.35,136.6,36.35,ishikawa
jp,bembe,Bembe,12,,42.573056,140.708333,42.573056,hokkaido
jp,benkei,Benkei,12,,42.533333,141.033333,42.533333,hokkaido
jp,benochi,Benochi,47,,26.796378,128.235514,26.796378,okinawa
jp,benoki,Benoki,47,,26.796378,128.235514,26.796378,okinawa
jp,bentencho,Bentencho,12,,43.851944,141.521389,43.851944,hokkaido
jp,bentencho,Bentencho,13,,34.683333,135.183333,34.683333,hyogo
jp,bentendori,Bentendori,12,,45.4,141.683333,45.4,hokkaido
jp,beppo,Beppo,12,,42.983333,144.483333,42.983333,hokkaido
jp,beppu,Beppu,12,,42.85,143.133333,42.85,hokkaido
jp,beppu,Beppu,13,,34.716667,134.85,34.716667,hyogo
jp,beppu,Beppu,30,125067,33.273611,131.491944,33.273611,oita
jp,beppu,Beppu,36,,35.1,132.533333,35.1,shimane
jp,beppucho,Beppucho,25,,31.916667,131.416667,31.916667,miyazaki
jp,beppumachi,Beppumachi,25,,31.916667,131.416667,31.916667,miyazaki
jp,beshibokk,Beshibokk,12,,42.333333,141.016667,42.333333,hokkaido
jp,beshibokke,Beshibokke,12,,42.333333,141.016667,42.333333,hokkaido
jp,beshipokke,Beshipokke,12,,42.333333,141.016667,42.333333,hokkaido
jp,bessako,Bessako,11,,34.633333,133.066667,34.633333,hiroshima
jp,besshakudomari,Besshakudomari,12,,42.933333,144.783333,42.933333,hokkaido
jp,bessho,Bessho,6,,36.033333,136.066667,36.033333,fukui
jp,bessho,Bessho,13,,34.8,134.75,34.8,hyogo
jp,bessho,Bessho,15,,37.266667,136.833333,37.266667,ishikawa
jp,bessho,Bessho,24,,38.406962,141.027861,38.406962,miyagi
jp,bessho,Bessho,26,,36.35,138.15,36.35,nagano
jp,bessho,Bessho,40,,35.607222,139.458611,35.607222,tokyo
jp,betchako,Betchako,12,,42.916667,143.266667,42.916667,hokkaido
jp,betchakudomari,Betchakudomari,12,,42.933333,144.783333,42.933333,hokkaido
jp,betcharo,Betcharo,12,,42.916667,143.266667,42.916667,hokkaido
jp,betomunai,Betomunai,12,,42.775556,142.221111,42.775556,hokkaido
jp,betsugari,Betsugari,12,,43.833333,141.516667,43.833333,hokkaido
jp,betsukari,Betsukari,12,,43.833333,141.483333,43.833333,hokkaido
jp,betsuku,Betsuku,15,,36.35,136.6,36.35,ishikawa
jp,betsusako,Betsusako,11,,34.633333,133.066667,34.633333,hiroshima
jp,betsutoga,Betsutoga,12,,43.25,145.4,43.25,hokkaido
jp,bettoga,Bettoga,12,,43.25,145.4,43.25,hokkaido
jp,betutoga,Betutoga,12,,43.25,145.4,43.25,hokkaido
jp,beutankeushi,Beutankeushi,12,,45.116667,141.2,45.116667,hokkaido
jp,bibai,Bibai,12,29029,43.324722,141.858611,43.324722,hokkaido
jp,bibasei,Bibasei,12,,43.05,145.083333,43.05,hokkaido
jp,bibi,Bibi,12,,42.75,141.716667,42.75,hokkaido
jp,biboro,Biboro,12,,43.822778,144.104444,43.822778,hokkaido
jp,biei,Biei,12,,43.584444,142.459722,43.584444,hokkaido
jp,bifuka,Bifuka,12,,44.475278,142.343056,44.475278,hokkaido
jp,bifuka-shigai,Bifuka-shigai,12,,44.475278,142.343056,44.475278,hokkaido
jp,biholo,Biholo,12,,43.822778,144.104444,43.822778,hokkaido
jp,bihoro,Bihoro,12,22972,43.822778,144.104444,43.822778,hokkaido
jp,biimatabaru,Biimatabaru,47,,26.605833,127.9725,26.605833,okinawa
jp,biimata,Biimata,47,,26.605833,127.9725,26.605833,okinawa
jp,biishi,Biishi,47,,26.702222,127.875278,26.702222,okinawa
jp,bikuni,Bikuni,12,,43.290278,140.600556,43.290278,hokkaido
jp,binnai,Binnai,12,,43,144.733333,43,hokkaido
jp,binneshiri,Binneshiri,12,,44.872222,142.217222,44.872222,hokkaido
jp,binuchi,Binuchi,47,,26.796378,128.235514,26.796378,okinawa
jp,biporo,Biporo,12,,43.822778,144.104444,43.822778,hokkaido
jp,bira,Bira,15,,37.233333,136.966667,37.233333,ishikawa
jp,birambetsu,Birambetsu,12,,43.133333,143.466667,43.133333,hokkaido
jp,biratomanai,Biratomanai,12,,43.066667,144.3,43.066667,hokkaido
jp,biratori,Biratori,12,,42.583333,142.133333,42.583333,hokkaido
jp,biroo,Biroo,12,,42.283889,143.319167,42.283889,hokkaido
jp,birugawamachi,Birugawamachi,15,,36.433333,136.466667,36.433333,ishikawa
jp,birukawamachi,Birukawamachi,15,,36.433333,136.466667,36.433333,ishikawa
jp,biruwa,Biruwa,12,,43.55,144.433333,43.55,hokkaido
jp,biruwagenya,Biruwagenya,12,,43.55,144.433333,43.55,hokkaido
jp,bise,Bise,47,,26.702222,127.875278,26.702222,okinawa
jp,bisumatomanai,Bisumatomanai,12,,44.093056,144.236111,44.093056,hokkaido
jp,bisumatonanai,Bisumatonanai,12,,44.093056,144.236111,44.093056,hokkaido
jp,biuka,Biuka,12,,44.475278,142.343056,44.475278,hokkaido
jp,biwajima,Biwajima,29,,37.35,138.55,37.35,niigata
jp,biwase,Biwase,12,,43.05,145.083333,43.05,hokkaido
jp,biya,Biya,12,,42.816667,140.3,42.816667,hokkaido
jp,bo,Bo,18,,31.266667,130.233333,31.266667,kagoshima
jp,bochu,Bochu,21,,32.933333,131.083333,32.933333,kumamoto
jp,bodai,Bodai,19,,35.405278,139.190556,35.405278,kanagawa
jp,bode,Bode,32,,34.35,135.233333,34.35,osaka
jp,bofu,Bofu,45,,34.05,131.566667,34.05,yamaguchi
jp,bohu,Bohu,45,,34.05,131.566667,34.05,yamaguchi
jp,bojo,Bojo,28,,34.483333,135.766667,34.483333,nara
jp,boma,Boma,18,,27.8,128.983333,27.8,kagoshima
jp,boojicho,Boojicho,13,,34.683333,135.15,34.683333,hyogo
jp,bora,Bora,47,,24.733408,125.424583,24.733408,okinawa
jp,boseura,Boseura,13,,34.65,134.516667,34.65,hyogo
jp,botancho,Botancho,40,,35.666667,139.8,35.666667,tokyo
jp,bote,Bote,32,,34.35,135.233333,34.35,osaka
jp,botsutsumi,Botsutsumi,20,,33.55,133.566667,33.55,kochi
jp,boze,Boze,5,,34.141667,133.015278,34.141667,ehime
jp,boze,Boze,13,,34.65,134.516667,34.65,hyogo
jp,bozu tsumi,Bozu Tsumi,20,,33.55,133.566667,33.55,kochi
jp,bubu,Bubu,18,,30.683333,131.05,30.683333,kagoshima
jp,budo,Budo,29,,38.383333,139.55,38.383333,niigata
jp,buhama,Buhama,12,,42.073056,139.424444,42.073056,hokkaido
jp,buimai,Buimai,12,,42.033333,143.116667,42.033333,hokkaido
jp,bunda,Bunda,29,,37.8,139.2,37.8,niigata
jp,bungata,Bungata,12,,43.2,140.916667,43.2,hokkaido
jp,bungo-mori,Bungo-Mori,30,,33.274722,131.151111,33.274722,oita
jp,bushi,Bushi,12,,42.316667,142.55,42.316667,hokkaido
jp,bushigawa,Bushigawa,12,,42.151944,139.520278,42.151944,hokkaido
jp,butaizuka,Butaizuka,24,,38.44072,141.134577,38.44072,miyagi
jp,byunoharu,Byunoharu,18,,31.883333,130.316667,31.883333,kagoshima
jp,camp futema,Camp Futema,47,,26.287222,127.773056,26.287222,okinawa
jp,chabana,Chabana,18,,27.05,128.416667,27.05,kagoshima
jp,chahana,Chahana,18,,27.05,128.416667,27.05,kagoshima
jp,chanai,Chanai,12,,43.1225,145.024167,43.1225,hokkaido
jp,chanai,Chanai,34,,35.859167,139.220278,35.859167,saitama
jp,chan,Chan,47,,26.184722,127.724722,26.184722,okinawa
jp,charachinai,Charachinai,12,,42.3,141,42.3,hokkaido
jp,chara-dantai,Chara-dantai,12,,43.616667,144.883333,43.616667,hokkaido
jp,charannai,Charannai,12,,42.3,141,42.3,hokkaido
jp,charashinai,Charashinai,12,,42.3,141,42.3,hokkaido
jp,chashikotsugenya,Chashikotsugenya,12,,44.066667,145.016667,44.066667,hokkaido
jp,chashinai,Chashinai,12,,43.366667,141.866667,43.366667,hokkaido
jp,chatan,Chatan,47,27844,26.309444,127.770278,26.309444,okinawa
jp,chaya,Chaya,31,,34.566667,133.816667,34.566667,okayama
jp,chiaraijima,Chiaraijima,34,,36.233333,139.25,36.233333,saitama
jp,chiaraishima,Chiaraishima,34,,36.233333,139.25,36.233333,saitama
jp,chiarijima,Chiarijima,34,,36.233333,139.25,36.233333,saitama
jp,chibana,Chibana,47,,26.358611,127.808889,26.358611,okinawa
jp,chiba-nyutaun,Chiba-nyutaun,4,,35.8,140.166667,35.8,chiba
jp,chiba-shi,Chiba-shi,4,,35.604722,140.123334,35.604722,chiba
jp,chibiki,Chibiki,3,,40.8,141.133333,40.8,aomori
jp,chibuske,Chibuske,12,,44.023056,144.936389,44.023056,hokkaido
jp,chibusuke,Chibusuke,12,,44.023056,144.936389,44.023056,hokkaido
jp,chichibubetsu,Chichibubetsu,12,,43.766667,141.966667,43.766667,hokkaido
jp,chichibu,Chichibu,34,58508,35.990278,139.076389,35.990278,saitama
jp,chichii,Chichii,36,,36.083333,133.116667,36.083333,shimane
jp,chichiishi,Chichiishi,11,,34.55,133.216667,34.55,hiroshima
jp,chida,Chida,29,,37.816667,138.316667,37.816667,niigata
jp,chidori,Chidori,4,,35.618333,139.9,35.618333,chiba
jp,chidori,Chidori,19,,35.517154,139.756819,35.517154,kanagawa
jp,chidori-cho,Chidori-cho,19,,35.517154,139.756819,35.517154,kanagawa
jp,chidoricho,Chidoricho,31,,34.533333,133.733333,34.533333,okayama
jp,chiebun,Chiebun,12,,44.433333,142.4,44.433333,hokkaido
jp,chiebun-shigai,Chiebun-shigai,12,,44.433333,142.4,44.433333,hokkaido
jp,chie,Chie,1,,34.783333,137.183333,34.783333,aichi
jp,chiembetsu,Chiembetsu,12,,44.1,145.25,44.1,hokkaido
jp,chieneshirara,Chieneshirara,12,,45.15,141.333333,45.15,hokkaido
jp,chienshirara,Chienshirara,12,,45.15,141.333333,45.15,hokkaido
jp,chifuwa,Chifuwa,47,,26.184742,127.818917,26.184742,okinawa
jp,chigaki,Chigaki,42,,36.566667,137.366667,36.566667,toyama
jp,chigara,Chigara,1,,34.783333,137.183333,34.783333,aichi
jp,chigaraki,Chigaraki,19,,35.326111,139.403889,35.326111,kanagawa
jp,chigasaki,Chigasaki,19,231660,35.326111,139.403889,35.326111,kanagawa
jp,chigirishima,Chigirishima,11,,34.3,132.9,34.3,hiroshima
jp,chigusa,Chigusa,23,,35.033333,136.483333,35.033333,mie
jp,chigusacho,Chigusacho,1,,35.166667,136.933333,35.166667,aichi
jp,chigusa-kaigan,Chigusa-kaigan,4,,35.507382,140.045556,35.507382,chiba
jp,chigusakaigan,Chigusakaigan,4,,35.507382,140.045556,35.507382,chiba
jp,chigusa-machi,Chigusa-machi,1,,35.166667,136.933333,35.166667,aichi
jp,chiha,Chiha,47,,26.184742,127.818917,26.184742,okinawa
jp,chihama,Chihama,37,,34.65,138.083333,34.65,shizuoka
jp,chiharacho,Chiharacho,1,,35.183333,136.866667,35.183333,aichi
jp,chiharamachi,Chiharamachi,1,,35.183333,136.866667,35.183333,aichi
jp,chihaya,Chihaya,6,,35.416667,135.65,35.416667,fukui
jp,chihena,Chihena,47,,26.358611,127.808889,26.358611,okinawa
jp,chiisago,Chiisago,12,,41.65,140,41.65,hokkaido
jp,chiishi,Chiishi,11,,34.55,133.216667,34.55,hiroshima
jp,chiitomanai,Chiitomanai,12,,45.416667,142.033333,45.416667,hokkaido
jp,chiji,Chiji,15,,36.916667,136.8,36.916667,ishikawa
jp,chiji,Chiji,27,,32.866667,129.05,32.866667,nagasaki
jp,chijiwa,Chijiwa,27,,32.776111,130.191111,32.776111,nagasaki
jp,chijuka,Chijuka,47,,26.705608,128.145736,26.705608,okinawa
jp,chikabumicho,Chikabumicho,12,,43.783333,142.333333,43.783333,hokkaido
jp,chikagawa,Chikagawa,3,,41.183333,141.283333,41.183333,aomori
jp,chikaraishi,Chikaraishi,26,,36.45,138.166667,36.45,nagano
jp,chikasono,Chikasono,38,,36.816667,140.016667,36.816667,tochigi
jp,chikatsuyu,Chikatsuyu,43,,33.816667,135.6,33.816667,wakayama
jp,chikaura,Chikaura,12,,42.05,143.083333,42.05,hokkaido
jp,chikawa,Chikawa,11,,34.683333,132.666667,34.683333,hiroshima
jp,chikayobu,Chikayobu,12,,42.05,143.083333,42.05,hokkaido
jp,chikayoppu,Chikayoppu,12,,42.05,143.083333,42.05,hokkaido
jp,chikayopu,Chikayopu,12,,42.05,143.083333,42.05,hokkaido
jp,chikazono,Chikazono,38,,36.816667,140.016667,36.816667,tochigi
jp,chikei,Chikei,16,,39.516667,142.033333,39.516667,iwate
jp,chikirishima,Chikirishima,11,,34.3,132.9,34.3,hiroshima
jp,chikubetsuhonryu,Chikubetsuhonryu,12,,44.383333,141.883333,44.383333,hokkaido
jp,chikujo,Chikujo,7,,33.666667,131.033333,33.666667,fukuoka
jp,chikuma,Chikuma,26,,36.527147,138.089426,36.527147,nagano
jp,chikume,Chikume,36,,35.566667,133.133333,35.566667,shimane
jp,chikumi,Chikumi,36,,35.566667,133.133333,35.566667,shimane
jp,chikummi,Chikummi,47,,26.166667,127.666667,26.166667,okinawa
jp,chikuni,Chikuni,26,,36.75,137.9,36.75,nagano
jp,chikura,Chikura,4,,34.95,139.95,34.95,chiba
jp,chikusa,Chikusa,13,,35.15,134.433333,35.15,hyogo
jp,chikusa,Chikusa,23,,35.033333,136.483333,35.033333,mie
jp,chikusacho,Chikusacho,1,,35.166667,136.933333,35.166667,aichi
jp,chikusamachi,Chikusamachi,1,,35.166667,136.933333,35.166667,aichi
jp,chikusei,Chikusei,14,,36.315999,139.98238,36.315999,ibaraki
jp,chikushi,Chikushi,12,,43.766667,141.966667,43.766667,hokkaido
jp,chikuto,Chikuto,47,,26.166667,127.666667,26.166667,okinawa
jp,chilanufuma,Chilanufuma,18,,31.366667,130.45,31.366667,kagoshima
jp,chimbe,Chimbe,12,,42.983333,144.933333,42.983333,hokkaido
jp,chiminami,Chiminami,12,,44.4,142.4,44.4,hokkaido
jp,chimu,Chimu,47,,26.452222,127.917778,26.452222,okinawa
jp,china,China,47,,26.183333,127.8,26.183333,okinawa
jp,chinan,Chinan,12,,44.4,142.4,44.4,hokkaido
jp,chinase,Chinase,18,,28.379265,129.449389,28.379265,kagoshima
jp,chin,Chin,47,,26.452222,127.917778,26.452222,okinawa
jp,chinda,Chinda,30,,32.983333,131.516667,32.983333,oita
jp,chindataki,Chindataki,30,,32.983333,131.516667,32.983333,oita
jp,chinen,Chinen,47,,26.156111,127.808611,26.156111,okinawa
jp,chinin,Chinin,47,,26.156111,127.808611,26.156111,okinawa
jp,chinishibetsu,Chinishibetsu,12,,43.983333,145.166667,43.983333,hokkaido
jp,chinkobe,Chinkobe,12,,42.433333,140.166667,42.433333,hokkaido
jp,chino,Chino,26,56567,35.983333,138.15,35.983333,nagano
jp,chinon,Chinon,47,,26.26265,127.761472,26.26265,okinawa
jp,chipira,Chipira,12,,42.016667,143.283333,42.016667,hokkaido
jp,chippubetsu,Chippubetsu,12,,43.766667,141.966667,43.766667,hokkaido
jp,chipputomari,Chipputomari,12,,43.95,144.833333,43.95,hokkaido
jp,chipudomari,Chipudomari,12,,43.95,144.833333,43.95,hokkaido
jp,chiraibetsu,Chiraibetsu,12,,45.372222,142.088889,45.372222,hokkaido
jp,chiran,Chiran,18,,31.366667,130.45,31.366667,kagoshima
jp,chiromo,Chiromo,27,,34.4,129.366667,34.4,nagasaki
jp,chiroro,Chiroro,12,,42.886389,142.535833,42.886389,hokkaido
jp,chiryu,Chiryu,1,67062,35,137.033333,35,aichi
jp,chiryu-cho,Chiryu-cho,1,,35,137.033333,35,aichi
jp,chisaka,Chisaka,12,,42.886389,142.535833,42.886389,hokkaido
jp,chise,Chise,47,,26.533611,127.939444,26.533611,okinawa
jp,chishaba,Chishaba,47,,26.301944,127.790278,26.301944,okinawa
jp,chishi,Chishi,47,,26.533611,127.939444,26.533611,okinawa
jp,chishimacho,Chishimacho,32,,34.65,135.483333,34.65,osaka
jp,chita,Chita,1,83276,35.002668,136.864205,35.002668,aichi
jp,chitchaku,Chitchaku,47,,26.931933,127.924778,26.931933,okinawa
jp,chitose,Chitose,12,92943,42.819444,141.652222,42.819444,hokkaido
jp,chitose,Chitose,22,,35.509444,135.347778,35.509444,kyoto
jp,chitosecho,Chitosecho,23,,34.95,136.633333,34.95,mie
jp,chitosemachi,Chitosemachi,23,,34.95,136.633333,34.95,mie
jp,chitsuyani,Chitsuyani,12,,42.133333,143.316667,42.133333,hokkaido
jp,chiwa,Chiwa,47,,26.184742,127.818917,26.184742,okinawa
jp,chiwaka,Chiwaka,19,,35.475,139.658333,35.475,kanagawa
jp,chiwakacho,Chiwakacho,19,,35.475,139.658333,35.475,kanagawa
jp,chiwakamachi,Chiwakamachi,19,,35.475,139.658333,35.475,kanagawa
jp,chiyagawa,Chiyagawa,29,,37.3,138.8,37.3,niigata
jp,chiyakawa,Chiyakawa,29,,37.3,138.8,37.3,niigata
jp,chiyamu,Chiyamu,47,,26.088889,127.657778,26.088889,okinawa
jp,chiyan,Chiyan,47,,26.088889,127.657778,26.088889,okinawa
jp,chiyembetsu,Chiyembetsu,12,,44.1,145.25,44.1,hokkaido
jp,chiyunna,Chiyunna,47,,26.284892,127.761042,26.284892,okinawa
jp,chizu,Chizu,41,,35.266667,134.233333,35.266667,tottori
jp,choba,Choba,31,,34.366667,133.55,34.366667,okayama
jp,choboshi,Choboshi,12,,43.25,145.566667,43.25,hokkaido
jp,chobushi,Chobushi,12,,43.25,145.566667,43.25,hokkaido
jp,choda,Choda,13,,34.866667,134.633333,34.866667,hyogo
jp,chodo,Chodo,16,,38.983333,141.716667,38.983333,iwate
jp,chofu,Chofu,40,212978,35.655556,139.552222,35.655556,tokyo
jp,chofu-miyazakicho,Chofu-Miyazakicho,45,,33.983333,130.983333,33.983333,yamaguchi
jp,chogo,Chogo,3,,41.366667,140.833333,41.366667,aomori
jp,chogo,Chogo,19,,35.408333,139.467222,35.408333,kanagawa
jp,chojabara,Chojabara,7,,33.616667,130.483333,33.616667,fukuoka
jp,chojabaru,Chojabaru,7,,33.616667,130.483333,33.616667,fukuoka
jp,choja,Choja,4,,35.3,140.4,35.3,chiba
jp,choja,Choja,20,,33.483333,133.133333,33.483333,kochi
jp,chojahara,Chojahara,44,,37.966667,139.683333,37.966667,yamagata
jp,chojamachi,Chojamachi,4,,35.3,140.4,35.3,chiba
jp,chokoji,Chokoji,16,,40.216667,141.416667,40.216667,iwate
jp,chokubetsu,Chokubetsu,12,,42.85,143.866667,42.85,hokkaido
jp,chomon,Chomon,45,,33.95,130.916667,33.95,yamaguchi
jp,chonai,Chonai,12,,43.1225,145.024167,43.1225,hokkaido
jp,chonan,Chonan,4,,35.4,140.233333,35.4,chiba
jp,choshi,Choshi,2,,40.366667,140.883333,40.366667,akita
jp,choshi,Choshi,4,75651,35.733333,140.833333,35.733333,chiba
jp,choshida,Choshida,11,,34.15,132.5,34.15,hiroshima
jp,choshoji,Choshoji,32,,34.516667,135.45,34.516667,osaka
jp,chosi,Chosi,4,,35.733333,140.833333,35.733333,chiba
jp,chota,Chota,47,,26.538056,127.967778,26.538056,okinawa
jp,choto,Choto,24,,38.238333,141.488333,38.238333,miyagi
jp,chucho,Chucho,29,,37.583333,138.833333,37.583333,niigata
jp,chuda,Chuda,47,,26.538056,127.967778,26.538056,okinawa
jp,chude,Chude,47,,26.538056,127.967778,26.538056,okinawa
jp,chugonji,Chugonji,29,,37.833333,138.916667,37.833333,niigata
jp,chuji,Chuji,8,,37.383333,140.133333,37.383333,fukushima
jp,chujo,Chujo,29,,37.583333,138.833333,37.583333,niigata
jp,chuoburaku,Chuoburaku,12,,44.433333,142.4,44.433333,hokkaido
jp,chuo,Chuo,4,,35.607778,140.126667,35.607778,chiba
jp,chuo,Chuo,12,,43.616667,144.966667,43.616667,hokkaido
jp,chuoko,Chuoko,4,,35.602778,140.1,35.602778,chiba
jp,chuo-sarakishi,Chuo-sarakishi,12,,44.85,141.783333,44.85,hokkaido
jp,chuo-shigai,Chuo-shigai,12,,43.616667,144.966667,43.616667,hokkaido
jp,churui,Churui,12,,42.566667,143.333333,42.566667,hokkaido
jp,churuigenya,Churuigenya,12,,43.75,145.033333,43.75,hokkaido
jp,churyu,Churyu,6,,35.883333,136.6,35.883333,fukui
jp,churyukozan,Churyukozan,6,,35.883333,136.6,35.883333,fukui
jp,chusha,Chusha,26,,36.733333,138.083333,36.733333,nagano
jp,chuta,Chuta,47,,26.538056,127.967778,26.538056,okinawa
jp,dachi-cho,Dachi-cho,9,,35.316667,137.233333,35.316667,gifu
jp,dachicho,Dachicho,9,,35.316667,137.233333,35.316667,gifu
jp,dachi,Dachi,9,,35.316667,137.233333,35.316667,gifu
jp,dachiku,Dachiku,33,,33.466667,129.8,33.466667,saga
jp,daekoya,Daekoya,44,,38.600278,140.288056,38.600278,yamagata
jp,daibacho,Daibacho,27,,32.75,129.866667,32.75,nagasaki
jp,daibo,Daibo,16,,39.966667,141.25,39.966667,iwate
jp,daibunri,Daibunri,1,,34.783333,137.4,34.783333,aichi
jp,daibutsu,Daibutsu,19,,35.4075,139.040278,35.4075,kanagawa
jp,daicho,Daicho,11,,34.183333,132.85,34.183333,hiroshima
jp,dai,Dai,36,,36.066667,133.1,36.066667,shimane
jp,daido,Daido,45,,34.05,131.483333,34.05,yamaguchi
jp,daigahara,Daigahara,46,,35.8,138.35,35.8,yamanashi
jp,daigocho,Daigocho,22,,34.95,135.816667,34.95,kyoto
jp,daigo,Daigo,2,,39.233333,140.533333,39.233333,akita
jp,daigo,Daigo,14,22311,36.766667,140.35,36.766667,ibaraki
jp,daigo,Daigo,22,,34.95,135.816667,34.95,kyoto
jp,daigyo,Daigyo,29,,38.35,139.55,38.35,niigata
jp,daihata,Daihata,24,,38.46582,141.046392,38.46582,miyagi
jp,daiho,Daiho,27,,32.601111,128.653611,32.601111,nagasaki
jp,daihogo,Daihogo,27,,32.601111,128.653611,32.601111,nagasaki
jp,daiji,Daiji,43,,33.583333,135.95,33.583333,wakayama
jp,daikachi,Daikachi,18,,28.383333,129.583333,28.383333,kagoshima
jp,daikaidori,Daikaidori,13,,34.666667,135.166667,34.666667,hyogo
jp,daikocho,Daikocho,1,,35.183333,136.95,35.183333,aichi
jp,daikokucho,Daikokucho,19,,35.483333,139.683333,35.483333,kanagawa
jp,daikoku,Daikoku,19,,35.483333,139.683333,35.483333,kanagawa
jp,daikomachi,Daikomachi,1,,35.183333,136.95,35.183333,aichi
jp,daiku,Daiku,36,,36.25,133.366667,36.25,shimane
jp,daikuma,Daikuma,18,,28.4,129.533333,28.4,kagoshima
jp,daimae,Daimae,24,,38.401734,141.150819,38.401734,miyagi
jp,daimommachi,Daimommachi,41,,35.386297,134.289931,35.386297,tottori
jp,daimoncho,Daimoncho,41,,35.386297,134.289931,35.386297,tottori
jp,daimon,Daimon,26,,36.1,137.966667,36.1,nagano
jp,daimon,Daimon,41,,35.386297,134.289931,35.386297,tottori
jp,daimon,Daimon,42,,36.733333,137.05,36.733333,toyama
jp,daini-china,Daini-china,47,,26.183333,127.8,26.183333,okinawa
jp,daini-higashi,Daini-Higashi,32,,34.7,135.483333,34.7,osaka
jp,dainota,Dainota,9,,35.6,137.033333,35.6,gifu
jp,dainyu,Dainyu,7,,33.505,130.101667,33.505,fukuoka
jp,daira,Daira,2,,40.376389,140.32,40.376389,akita
jp,daira,Daira,6,,35.801944,136.0925,35.801944,fukui
jp,dairakozan,Dairakozan,2,,40.376389,140.32,40.376389,akita
jp,dairi,Dairi,45,,33.9,130.916667,33.9,yamaguchi
jp,dairi-shimmachi,Dairi-shimmachi,45,,33.9,130.916667,33.9,yamaguchi
jp,daisen,Daisen,2,,39.441164,140.489613,39.441164,akita
jp,daisen,Daisen,41,,35.383333,133.533333,35.383333,tottori
jp,daishibu,Daishibu,12,,43.783333,143.683333,43.783333,hokkaido
jp,daishinden,Daishinden,26,,36.5,137.866667,36.5,nagano
jp,daishoji,Daishoji,15,,36.3,136.316667,36.3,ishikawa
jp,daito,Daito,12,,43.883333,144.2,43.883333,hokkaido
jp,daito,Daito,28,,34.45,135.933333,34.45,nara
jp,daito,Daito,32,129523,34.7,135.616667,34.7,osaka
jp,daito,Daito,36,,35.316667,132.966667,35.316667,shimane
jp,daiyama,Daiyama,24,,38.428822,141.091031,38.428822,miyagi
jp,daiyombu,Daiyombu,12,,43.783333,143.683333,43.783333,hokkaido
jp,dajiku,Dajiku,33,,33.466667,129.8,33.466667,saga
jp,dakeshi,Dakeshi,47,,26.235,127.708611,26.235,okinawa
jp,dakiton,Dakiton,47,,26.158056,127.688889,26.158056,okinawa
jp,dakitun,Dakitun,47,,26.158056,127.688889,26.158056,okinawa
jp,dakuchaku,Dakuchaku,47,,26.35,127.783333,26.35,okinawa
jp,dakujaku,Dakujaku,47,,26.35,127.783333,26.35,okinawa
jp,dakushaku,Dakushaku,47,,26.35,127.783333,26.35,okinawa
jp,dana,Dana,47,,27.061942,127.986861,27.061942,okinawa
jp,dannayama,Dannayama,24,,38.470621,141.071634,38.470621,miyagi
jp,dannouracho,Dannouracho,45,,33.95,130.95,33.95,yamaguchi
jp,dannoura,Dannoura,45,,33.95,130.95,33.95,yamaguchi
jp,dannouramachi,Dannouramachi,45,,33.95,130.95,33.95,yamaguchi
jp,datake,Datake,33,,33.466667,129.8,33.466667,saga
jp,date,Date,8,,37.816667,140.5,37.816667,fukushima
jp,date,Date,12,35301,42.468056,140.868056,42.468056,hokkaido
jp,dategata,Dategata,37,,34.783333,138.066667,34.783333,shizuoka
jp,datiku,Datiku,33,,33.466667,129.8,33.466667,saga
jp,daziku,Daziku,33,,33.466667,129.8,33.466667,saga
jp,deai,Deai,20,,33.033333,132.883333,33.033333,kochi
jp,deai,Deai,39,,33.95,133.8,33.95,tokushima
jp,de,De,42,,36.633333,136.95,36.633333,toyama
jp,dedo,Dedo,3,,41,141.383333,41,aomori
jp,de-gamo,De-gamo,35,,35.316667,136.016667,35.316667,shiga
jp,deguchi,Deguchi,2,,40.266667,140.45,40.266667,akita
jp,dejimacho,Dejimacho,27,,32.733333,129.883333,32.733333,nagasaki
jp,dejima,Dejima,27,,32.733333,129.883333,32.733333,nagasaki
jp,dejima,Dejima,43,,34.183333,135.15,34.183333,wakayama
jp,dejimamachi,Dejimamachi,27,,32.733333,129.883333,32.733333,nagasaki
jp,de-kamo,De-kamo,35,,35.316667,136.016667,35.316667,shiga
jp,dekichi,Dekichi,20,,33.583333,133.316667,33.583333,kochi
jp,dekiji,Dekiji,20,,33.583333,133.316667,33.583333,kochi
jp,dekijima,Dekijima,3,,40.833333,140.283333,40.833333,aomori
jp,dekijima,Dekijima,29,,37.9,139.016667,37.9,niigata
jp,dekishima,Dekishima,29,,37.9,139.016667,37.9,niigata
jp,dekujaku,Dekujaku,47,,26.35,127.783333,26.35,okinawa
jp,dekuma,Dekuma,18,,28.4,129.533333,28.4,kagoshima
jp,demachi,Demachi,42,,36.633333,136.95,36.633333,toyama
jp,demboji,Demboji,7,,33.616667,130.983333,33.616667,fukuoka
jp,dempocho-kita,Dempocho-kita,32,,34.683333,135.466667,34.683333,osaka
jp,dempocho-minami,Dempocho-minami,13,,34.683333,135.45,34.683333,hyogo
jp,dempoji,Dempoji,7,,33.616667,130.983333,33.616667,fukuoka
jp,denenchofu,Denenchofu,19,,35.583333,139.666667,35.583333,kanagawa
jp,denhoji,Denhoji,7,,33.616667,130.983333,33.616667,fukuoka
jp,denjiyama,Denjiyama,1,,35.083333,136.95,35.083333,aichi
jp,deno,Deno,30,,33.216667,130.883333,33.216667,oita
jp,denpo-machi-kita,Denpo-machi-Kita,32,,34.683333,135.466667,34.683333,osaka
jp,dento,Dento,11,,34.733333,133.183333,34.733333,hiroshima
jp,denyenchofu,Denyenchofu,19,,35.583333,139.666667,35.583333,kanagawa
jp,deragawa,Deragawa,47,,26.367222,127.842778,26.367222,okinawa
jp,derakawa,Derakawa,47,,26.367222,127.842778,26.367222,okinawa
jp,deraku,Deraku,47,,26.601803,128.124014,26.601803,okinawa
jp,deshima,Deshima,27,,32.733333,129.883333,32.733333,nagasaki
jp,deshima,Deshima,43,,34.183333,135.15,34.183333,wakayama
jp,detacho,Detacho,19,,35.466667,139.65,35.466667,kanagawa
jp,detaribira,Detaribira,12,,43.233333,140.733333,43.233333,hokkaido
jp,detarihira,Detarihira,12,,43.233333,140.733333,43.233333,hokkaido
jp,deto,Deto,2,,39.333333,139.983333,39.333333,akita
jp,deto,Deto,3,,41,141.383333,41,aomori
jp,dezaikecho,Dezaikecho,13,,34.666667,135.183333,34.666667,hyogo
jp,dezima,Dezima,27,,32.733333,129.883333,32.733333,nagasaki
jp,dezima mati,Dezima Mati,27,,32.733333,129.883333,32.733333,nagasaki
jp,dira,Dira,47,,26.325556,127.816944,26.325556,okinawa
jp,doai,Doai,6,,35.866667,136.366667,35.866667,fukui
jp,doai,Doai,10,,36.833333,138.966667,36.833333,gunma
jp,doba,Doba,24,,38.381381,141.177431,38.381381,miyagi
jp,dochi,Dochi,24,,38.416807,141.195852,38.416807,miyagi
jp,dodani,Dodani,13,,35.283333,134.55,35.283333,hyogo
jp,dodoro,Dodoro,25,,32.5,131.683333,32.5,miyazaki
jp,dogatani,Dogatani,28,,34.6,135.883333,34.6,nara
jp,dogawa,Dogawa,2,,40.066667,140.3,40.066667,akita
jp,dogaya,Dogaya,28,,34.6,135.883333,34.6,nara
jp,doge,Doge,15,,37.283333,136.75,37.283333,ishikawa
jp,dogizaka,Dogizaka,3,,40.9,140.333333,40.9,aomori
jp,dohaku,Dohaku,23,,34.85,136.55,34.85,mie
jp,dohakumachi,Dohakumachi,23,,34.85,136.55,34.85,mie
jp,doi,Doi,11,,34.566667,132.25,34.566667,hiroshima
jp,doi,Doi,20,,33.516667,133.916667,33.516667,kochi
jp,doi,Doi,31,,34.983333,134.266667,34.983333,okayama
jp,doi,Doi,37,,34.9,138.783333,34.9,shizuoka
jp,doi,Doi,45,,33.916667,132.316667,33.916667,yamaguchi
jp,doinotani,Doinotani,20,,33.6,133.783333,33.6,kochi
jp,doitokoro,Doitokoro,12,,43.616667,143.45,43.616667,hokkaido
jp,doji,Doji,19,,35.576389,139.151111,35.576389,kanagawa
jp,dojima-nishimachi,Dojima-nishimachi,32,,34.683333,135.483333,34.683333,osaka
jp,dojo,Dojo,13,,34.866667,135.233333,34.866667,hyogo
jp,dojo,Dojo,19,,35.538889,139.208889,35.538889,kanagawa
jp,dojokawahara,Dojokawahara,13,,34.866667,135.233333,34.866667,hyogo
jp,dokawa,Dokawa,2,,40.066667,140.3,40.066667,akita
jp,dokisaka,Dokisaka,3,,40.9,140.333333,40.9,aomori
jp,dokusawa,Dokusawa,44,,38.667778,140.334167,38.667778,yamagata
jp,doma,Doma,47,,26.258611,127.7875,26.258611,okinawa
jp,domeki,Domeki,24,,38.435804,141.040591,38.435804,miyagi
jp,domui,Domui,47,,26.133611,127.722778,26.133611,okinawa
jp,domura,Domura,26,,36.083333,138.483333,36.083333,nagano
jp,donari,Donari,39,,34.1,134.35,34.1,tokushima
jp,donaru,Donaru,5,,33.916667,133.65,33.916667,ehime
jp,donoyama,Donoyama,24,,38.442631,141.119541,38.442631,miyagi
jp,doren,Doren,18,,28.1,129.35,28.1,kagoshima
jp,dori,Dori,40,,35.666667,139.783333,35.666667,tokyo
jp,dorogawa,Dorogawa,12,,43.6,141.533333,43.6,hokkaido
jp,dorokawa,Dorokawa,12,,43.6,141.533333,43.6,hokkaido
jp,doronishijo,Doronishijo,23,,34.533333,136.716667,34.533333,mie
jp,doronoki,Doronoki,12,,43.233333,140.616667,43.233333,hokkaido
jp,dorosaki,Dorosaki,26,,36.766667,137.9,36.766667,nagano
jp,dorozaki,Dorozaki,26,,36.766667,137.9,36.766667,nagano
jp,dosaki,Dosaki,18,,32.016667,130.6,32.016667,kagoshima
jp,dosantsukuri,Dosantsukuri,24,,38.43005,141.034814,38.43005,miyagi
jp,doshi,Doshi,19,,35.583333,139.216667,35.583333,kanagawa
jp,doshoda,Doshoda,44,,38.551111,140.400556,38.551111,yamagata
jp,dosokohama,Dosokohama,29,,37.216667,138.316667,37.216667,niigata
jp,dotani,Dotani,13,,35.283333,134.55,35.283333,hyogo
jp,dote-nagamachi,Dote-nagamachi,2,,39.716667,140.116667,39.716667,akita
jp,dotezaki,Dotezaki,24,,38.4406,141.007752,38.4406,miyagi
jp,dotocho,Dotocho,32,,34.533333,135.516667,34.533333,osaka
jp,doto,Doto,32,,34.533333,135.516667,34.533333,osaka
jp,dotomachi,Dotomachi,32,,34.533333,135.516667,34.533333,osaka
jp,dotoro,Dotoro,25,,32.5,131.683333,32.5,miyazaki
jp,doya,Doya,12,,42.639722,140.824167,42.639722,hokkaido
jp,doyama,Doyama,47,,26.138889,127.758889,26.138889,okinawa
jp,doyaonsen,Doyaonsen,12,,42.566667,140.816667,42.566667,hokkaido
jp,doyukawa,Doyukawa,43,,33.833333,135.683333,33.833333,wakayama
jp,dozaki,Dozaki,18,,32.016667,130.6,32.016667,kagoshima
jp,dozuki,Dozuki,1,,35.2,137.283333,35.2,aichi
jp,eba,Eba,11,,34.366667,132.433333,34.366667,hiroshima
jp,ebamachi,Ebamachi,11,,34.366667,132.433333,34.366667,hiroshima
jp,ebana,Ebana,8,,37.283333,140.166667,37.283333,fukushima
jp,ebara,Ebara,4,,35.733333,140.2,35.733333,chiba
jp,ebara,Ebara,13,,35.466667,134.783333,35.466667,hyogo
jp,ebaramachi,Ebaramachi,4,,35.733333,140.2,35.733333,chiba
jp,ebeotsu,Ebeotsu,12,,43.621389,141.938056,43.621389,hokkaido
jp,ebetsu,Ebetsu,12,133955,43.108056,141.550556,43.108056,hokkaido
jp,ebi,Ebi,1,,35.016667,137.55,35.016667,aichi
jp,ebi,Ebi,41,,35.283333,133.483333,35.283333,tottori
jp,ebie,Ebie,42,,36.766667,137.15,36.766667,toyama
jp,ebima,Ebima,1,,34.65,137.15,34.65,aichi
jp,ebina,Ebina,19,123667,35.381212,139.396515,35.381212,kanagawa
jp,ebishima,Ebishima,12,,43.85,141.883333,43.85,hokkaido
jp,ebisucho,Ebisucho,19,,35.483333,139.666667,35.483333,kanagawa
jp,ebisucho,Ebisucho,32,,34.5,135.4,34.5,osaka
jp,ebisudori,Ebisudori,7,,33.9,130.816667,33.9,fukuoka
jp,ebisu,Ebisu,5,,34.066667,133.004167,34.066667,ehime
jp,ebisu,Ebisu,12,,43.85,141.883333,43.85,hokkaido
jp,ebisu,Ebisu,29,,38.083333,138.433333,38.083333,niigata
jp,ebisu-machi,Ebisu-machi,19,,35.483333,139.666667,35.483333,kanagawa
jp,echigawa-cho,Echigawa-cho,35,,35.166667,136.2,35.166667,shiga
jp,echigawa,Echigawa,35,,35.166667,136.2,35.166667,shiga
jp,echikawa,Echikawa,35,,35.166667,136.2,35.166667,shiga
jp,echizembori,Echizembori,40,,35.666667,139.783333,35.666667,tokyo
jp,echizenbori,Echizenbori,40,,35.666667,139.783333,35.666667,tokyo
jp,echizen,Echizen,12,,42.783333,143.15,42.783333,hokkaido
jp,echizenhama,Echizenhama,29,,37.8,138.85,37.8,niigata
jp,eda,Eda,8,,37.166667,140.833333,37.166667,fukushima
jp,edagawacho,Edagawacho,40,,35.65,139.816667,35.65,tokyo
jp,edagawa,Edagawa,20,,33.65,133.333333,33.65,kochi
jp,edagawa,Edagawa,40,,35.653333,139.803333,35.653333,tokyo
jp,edano,Edano,24,,37.95,140.8,37.95,miyagi
jp,edobashi,Edobashi,40,,35.683333,139.766667,35.683333,tokyo
jp,edo,Edo,40,,35.685,139.751389,35.685,tokyo
jp,edo,Edo,45,,34.266667,131.35,34.266667,yamaguchi
jp,edogawadai,Edogawadai,4,,35.901389,139.907222,35.901389,chiba
jp,edogawa,Edogawa,40,,35.659444,139.853333,35.659444,tokyo
jp,edome-kami,Edome-kami,6,,36.116667,136.216667,36.116667,fukui
jp,edome-naka,Edome-naka,6,,36.133333,136.216667,36.133333,fukui
jp,edome-shimo,Edome-shimo,6,,36.133333,136.216667,36.133333,fukui
jp,edome-shita,Edome-shita,6,,36.133333,136.216667,36.133333,fukui
jp,edosaki,Edosaki,14,20801,35.95,140.316667,35.95,ibaraki
jp,edosawa,Edosawa,24,,38.459462,141.025947,38.459462,miyagi
jp,egashira,Egashira,35,,35.116667,136.05,35.116667,shiga
jp,egi,Egi,11,,34.533333,133.033333,34.533333,hiroshima
jp,egita,Egita,41,,35.483333,133.85,35.483333,tottori
jp,egoda,Egoda,40,,35.733333,139.666667,35.733333,tokyo
jp,ego,Ego,45,,34.083333,130.95,34.083333,yamaguchi
jp,egotacho,Egotacho,40,,35.733333,139.666667,35.733333,tokyo
jp,egota,Egota,40,,35.716667,139.666667,35.716667,tokyo
jp,egotamachi,Egotamachi,40,,35.733333,139.666667,35.733333,tokyo
jp,eguchi,Eguchi,27,,33.35,129.716667,33.35,nagasaki
jp,eguchiura,Eguchiura,18,,31.65,130.316667,31.65,kagoshima
jp,ehana,Ehana,8,,37.283333,140.166667,37.283333,fukushima
jp,ehaoi,Ehaoi,12,,42.083333,143.016667,42.083333,hokkaido
jp,ehara,Ehara,13,,35.466667,134.783333,35.466667,hyogo
jp,ehima,Ehima,1,,34.65,137.15,34.65,aichi
jp,ehinohe,Ehinohe,16,,40.206944,141.301667,40.206944,iwate
jp,ehu,Ehu,11,,34.366667,132.433333,34.366667,hiroshima
jp,eidaicho,Eidaicho,12,,44.009444,143.774444,44.009444,hokkaido
jp,eidai,Eidai,6,,35.658333,136.037222,35.658333,fukui
jp,ei,Ei,13,,34.466667,134.833333,34.466667,hyogo
jp,ei,Ei,18,,31.266667,130.466667,31.266667,kagoshima
jp,eigashima,Eigashima,13,,34.666667,134.916667,34.666667,hyogo
jp,eijima,Eijima,13,,34.666667,134.916667,34.666667,hyogo
jp,eiko,Eiko,27,,34.616667,129.35,34.616667,nagasaki
jp,eishima,Eishima,13,,34.666667,134.916667,34.666667,hyogo
jp,ejiri,Ejiri,24,,38.016667,140.8,38.016667,miyagi
jp,ejiri,Ejiri,37,,35.016667,138.483333,35.016667,shizuoka
jp,ejiri,Ejiri,45,,34.083333,130.95,34.083333,yamaguchi
jp,ejirimachi,Ejirimachi,37,,35.016667,138.483333,35.016667,shizuoka
jp,ekami,Ekami,27,,32.838333,128.9,32.838333,nagasaki
jp,eki,Eki,11,,34.533333,133.033333,34.533333,hiroshima
jp,ekitei,Ekitei,12,,43.271389,143.423889,43.271389,hokkaido
jp,ekodacho,Ekodacho,40,,35.716667,139.666667,35.716667,tokyo
jp,ekoda,Ekoda,40,,35.716667,139.666667,35.716667,tokyo
jp,eko,Eko,27,,34.616667,129.35,34.616667,nagasaki
jp,ema,Ema,23,,34.366667,136.333333,34.366667,mie
jp,embetsu,Embetsu,12,,44.707222,141.788889,44.707222,hokkaido
jp,embu,Embu,8,,37.833333,140.383333,37.833333,fukushima
jp,emi,Emi,4,,35.05,140.066667,35.05,chiba
jp,emi,Emi,31,,35.016667,134.216667,35.016667,okayama
jp,emoto,Emoto,5,,33.966667,133.516667,33.966667,ehime
jp,emukae,Emukae,27,,33.3,129.633333,33.3,nagasaki
jp,emukai,Emukai,27,,33.3,129.633333,33.3,nagasaki
jp,emukai-shikamachi,Emukai-Shikamachi,27,,33.266667,129.583333,33.266667,nagasaki
jp,ena,Ena,8,,36.966667,140.966667,36.966667,fukushima
jp,ena,Ena,9,35689,35.447216,137.38332,35.447216,gifu
jp,ena,Ena,37,,34.75,138.783333,34.75,shizuoka
jp,ena,Ena,43,,33.983333,135.1,33.983333,wakayama
jp,enami,Enami,24,,38.633333,141.216667,38.633333,miyagi
jp,enbana,Enbana,24,,38.468865,141.077468,38.468865,miyagi
jp,enbetsu,Enbetsu,12,,44.707222,141.788889,44.707222,hokkaido
jp,enbetu,Enbetu,12,,44.707222,141.788889,44.707222,hokkaido
jp,encho,Encho,11,,34.383333,133.083333,34.383333,hiroshima
jp,endatara,Endatara,12,,42.45,143.216667,42.45,hokkaido
jp,engaru,Engaru,12,,44.054167,143.522222,44.054167,hokkaido
jp,enichicho,Enichicho,11,,34.383333,133.083333,34.383333,hiroshima
jp,enichi,Enichi,11,,34.383333,133.083333,34.383333,hiroshima
jp,en-ichi-machi,En-ichi-machi,11,,34.383333,133.083333,34.383333,hiroshima
jp,eniwa-cho,Eniwa-cho,12,,42.883333,141.566667,42.883333,hokkaido
jp,eniwa,Eniwa,12,68771,42.883333,141.566667,42.883333,hokkaido
jp,eniwa-machi,Eniwa-machi,12,,42.883333,141.566667,42.883333,hokkaido
jp,eniwa-mura,Eniwa-mura,12,,42.883333,141.566667,42.883333,hokkaido
jp,eniwa-shi,Eniwa-shi,12,,42.883333,141.566667,42.883333,hokkaido
jp,enjitsu,Enjitsu,13,,34.2,134.8,34.2,hyogo
jp,enkomu,Enkomu,12,,43.083333,144.5,43.083333,hokkaido
jp,enkyo-gumi,Enkyo-gumi,46,,35.616667,138.983333,35.616667,yamanashi
jp,enobi,Enobi,47,,26.388611,127.833333,26.388611,okinawa
jp,enohama,Enohama,27,,32.983333,129.183333,32.983333,nagasaki
jp,enohi,Enohi,47,,26.388611,127.833333,26.388611,okinawa
jp,enokizu,Enokizu,27,,32.983333,129.1,32.983333,nagasaki
jp,enomoto,Enomoto,5,,33.966667,133.516667,33.966667,ehime
jp,enosumi,Enosumi,33,,33.2,130.2,33.2,saga
jp,enotsu,Enotsu,27,,32.983333,129.1,32.983333,nagasaki
jp,enoura,Enoura,11,,34.363333,133.193333,34.363333,hiroshima
jp,enoura,Enoura,19,,35.183333,139.133333,35.183333,kanagawa
jp,e-no-ura,E-no-ura,37,,35.05,138.883333,35.05,shizuoka
jp,enoura,Enoura,37,,35.05,138.883333,35.05,shizuoka
jp,enoura,Enoura,45,,33.933333,130.916667,33.933333,yamaguchi
jp,entokomappu,Entokomappu,12,,43.583333,144.283333,43.583333,hokkaido
jp,enza,Enza,17,,34.283333,134,34.283333,kagawa
jp,enzan,Enzan,46,25143,35.7,138.733333,35.7,yamanashi
jp,eoroshi,Eoroshi,12,,43.633333,142.633333,43.633333,hokkaido
jp,erabu,Erabu,47,,24.817222,125.1785,24.817222,okinawa
jp,era,Era,6,,35.7,136.083333,35.7,fukui
jp,era,Era,12,,41.540278,139.990278,41.540278,hokkaido
jp,era,Era,30,,33.25,131.183333,33.25,oita
jp,eramachi,Eramachi,12,,41.540278,139.990278,41.540278,hokkaido
jp,erimo,Erimo,12,,41.933889,143.239167,41.933889,hokkaido
jp,esa,Esa,12,,41.857222,140.123056,41.857222,hokkaido
jp,esahito,Esahito,12,,43.166667,145.3,43.166667,hokkaido
jp,esaki,Esaki,45,,34.633333,131.65,34.633333,yamaguchi
jp,esamambetsu,Esamambetsu,12,,42.183333,143,42.183333,hokkaido
jp,esambe,Esambe,12,,45.316667,142.183333,45.316667,hokkaido
jp,esanuka,Esanuka,12,,45.233333,142.266667,45.233333,hokkaido
jp,esanupukara,Esanupukara,12,,45.233333,142.266667,45.233333,hokkaido
jp,esashi,Esashi,12,,41.857222,140.123056,41.857222,hokkaido
jp,esashika,Esashika,16,,40.25,141.4,40.25,iwate
jp,esashito,Esashito,12,,43.166667,145.3,43.166667,hokkaido
jp,esasi,Esasi,12,,41.857222,140.123056,41.857222,hokkaido
jp,eshu,Eshu,47,,26.350833,127.824444,26.350833,okinawa
jp,esu,Esu,47,,26.350833,127.824444,26.350833,okinawa
jp,esumi,Esumi,43,,33.5,135.6,33.5,wakayama
jp,eta,Eta,8,,37.166667,140.833333,37.166667,fukushima
jp,eta,Eta,21,,32.966667,130.6,32.966667,kumamoto
jp,etchu-dantai,Etchu-dantai,12,,42.433333,143.25,42.433333,hokkaido
jp,etchujimacho,Etchujimacho,40,,35.666667,139.8,35.666667,tokyo
jp,etchujimamachi,Etchujimamachi,40,,35.666667,139.8,35.666667,tokyo
jp,etchu-mombetsu,Etchu-Mombetsu,12,,42.433333,143.25,42.433333,hokkaido
jp,etobi,Etobi,12,,43.8,144.6,43.8,hokkaido
jp,etombi,Etombi,12,,43.8,144.6,43.8,hokkaido
jp,etomo,Etomo,36,,35.516667,132.983333,35.516667,shimane
jp,etomomachi,Etomomachi,36,,35.516667,132.983333,35.516667,shimane
jp,etsunagi,Etsunagi,16,,39.533333,141.65,39.533333,iwate
jp,ezaki,Ezaki,45,,34.633333,131.65,34.633333,yamaguchi
jp,ezu,Ezu,47,,26.350833,127.824444,26.350833,okinawa
jp,ezumi,Ezumi,36,,35.516667,132.966667,35.516667,shimane
jp,fakum,Fakum,15,,37.3,136.733333,37.3,ishikawa
jp,fintona,Fintona,47,,26.745011,128.175403,26.745011,okinawa
jp,fiuruichi,Fiuruichi,11,,34.45,132.466667,34.45,hiroshima
jp,fubai,Fubai,47,,24.454103,124.194667,24.454103,okinawa
jp,fube,Fube,36,,35.3,133.15,35.3,shimane
jp,fubushinai,Fubushinai,12,,43.166667,144.1,43.166667,hokkaido
jp,fuchaku,Fuchaku,47,,26.453056,127.804722,26.453056,okinawa
jp,fuchi,Fuchi,23,,34.283333,136.516667,34.283333,mie
jp,fuchinobe,Fuchinobe,19,,35.573889,139.375556,35.573889,kanagawa
jp,fuchinoe,Fuchinoe,33,,33.451667,130.0425,33.451667,saga
jp,fuchinomoto,Fuchinomoto,27,,32.766667,128.65,32.766667,nagasaki
jp,fuchinoue,Fuchinoue,33,,33.451667,130.0425,33.451667,saga
jp,fuchio-cho,Fuchio-cho,32,,34.85,135.45,34.85,osaka
jp,fuchisaki,Fuchisaki,17,,34.483333,134.191111,34.483333,kagawa
jp,fuchizaki,Fuchizaki,17,,34.483333,134.191111,34.483333,kagawa
jp,fuchu,Fuchu,11,50747,34.566667,133.233333,34.566667,hiroshima
jp,fuchu,Fuchu,39,,34.066667,134.466667,34.066667,tokushima
jp,fuchu,Fuchu,40,240082,35.666667,139.483333,35.666667,tokyo
jp,fudaba,Fudaba,16,,39.383333,141.816667,39.383333,iwate
jp,fudaba,Fudaba,20,,33.45,133.2,33.45,kochi
jp,fuda,Fuda,14,,36.083333,140.55,36.083333,ibaraki
jp,fudai,Fudai,16,,40,141.883333,40,iwate
jp,fudakake,Fudakake,19,,35.456667,139.207778,35.456667,kanagawa
jp,fudono,Fudono,25,,32.433333,131.05,32.433333,miyazaki
jp,fudonoguchi,Fudonoguchi,23,,34.55,136.333333,34.55,mie
jp,fudonokuchi,Fudonokuchi,23,,34.55,136.333333,34.55,mie
jp,fuefuki,Fuefuki,27,,33.183333,129.05,33.183333,nagasaki
jp,fuemabu,Fuemabu,12,,42.033333,143.116667,42.033333,hokkaido
jp,fuemai,Fuemai,12,,42.033333,143.116667,42.033333,hokkaido
jp,fuenna,Fuenna,47,,26.321389,127.8875,26.321389,okinawa
jp,fuensan,Fuensan,47,,26.316667,127.75,26.316667,okinawa
jp,fuenzan,Fuenzan,47,,26.316667,127.75,26.316667,okinawa
jp,fugawa,Fugawa,40,,35.683333,139.8,35.683333,tokyo
jp,fuhido,Fuhido,47,,26.856733,128.260361,26.856733,okinawa
jp,fuhija,Fuhija,47,,26.37495,127.753889,26.37495,okinawa
jp,fuhiji,Fuhiji,47,,26.727003,128.176583,26.727003,okinawa
jp,fuhinuku,Fuhinuku,47,,26.520556,128.025833,26.520556,okinawa
jp,fuhito,Fuhito,47,,26.856733,128.260361,26.856733,okinawa
jp,fuie,Fuie,18,,31.383333,130.766667,31.383333,kagoshima
jp,fuija,Fuija,47,,26.320833,127.958611,26.320833,okinawa
jp,fuishichiya,Fuishichiya,47,,26.304444,127.908889,26.304444,okinawa
jp,fuishikiya,Fuishikiya,47,,26.304444,127.908889,26.304444,okinawa
jp,fuitocho,Fuitocho,9,,36.166667,137.25,36.166667,gifu
jp,fuito,Fuito,9,,36.166667,137.25,36.166667,gifu
jp,fuitomachi,Fuitomachi,9,,36.166667,137.25,36.166667,gifu
jp,fujaku,Fujaku,47,,26.453056,127.804722,26.453056,okinawa
jp,fujibaru,Fujibaru,47,,26.609722,127.951944,26.609722,okinawa
jp,fujieda,Fujieda,37,132860,34.866667,138.266667,34.866667,shizuoka
jp,fujie,Fujie,13,,34.65,134.95,34.65,hyogo
jp,fujie-shinden,Fujie-shinden,44,,39.033333,139.95,39.033333,yamagata
jp,fuji,Fuji,12,,42.8,143.116667,42.8,hokkaido
jp,fuji,Fuji,37,240017,35.15,138.65,35.15,shizuoka
jp,fujigasaki,Fujigasaki,24,,38.533333,141.066667,38.533333,miyagi
jp,fujihara,Fujihara,38,,36.85,139.733333,36.85,tochigi
jp,fujiidera,Fujiidera,32,66856,34.563769,135.578629,34.563769,osaka
jp,fujii,Fujii,43,,33.9,135.183333,33.9,wakayama
jp,fujii-shinden,Fujii-shinden,44,,39.033333,139.95,39.033333,yamagata
jp,fujikawa,Fujikawa,1,,34.9,137.233333,34.9,aichi
jp,fujimicho,Fujimicho,40,,35.65,139.733333,35.65,tokyo
jp,fujimi,Fujimi,12,,42.802778,140.686944,42.802778,hokkaido
jp,fujimi,Fujimi,34,108462,35.873739,139.555375,35.873739,saitama
jp,fujimino,Fujimino,34,,35.901961,139.524894,35.901961,saitama
jp,fujimiya,Fujimiya,37,,35.216667,138.616667,35.216667,shizuoka
jp,fujimoto,Fujimoto,21,,32.433333,130.65,32.433333,kumamoto
jp,fujino,Fujino,19,,35.606389,139.143056,35.606389,kanagawa
jp,fujino,Fujino,31,,34.816667,134.166667,34.816667,okayama
jp,fujinoike,Fujinoike,39,,33.866667,134.116667,33.866667,tokushima
jp,fujinokawa,Fujinokawa,20,,33.15,132.833333,33.15,kochi
jp,fujinoki,Fujinoki,46,,35.583333,138.766667,35.583333,yamanashi
jp,fujinomaki,Fujinomaki,24,,38.432932,141.114072,38.432932,miyagi
jp,fujinomiya,Fujinomiya,37,121517,35.216667,138.616667,35.216667,shizuoka
jp,fujinono,Fujinono,5,,33.9,132.866667,33.9,ehime
jp,fujinouchi,Fujinouchi,5,,33.9,132.866667,33.9,ehime
jp,fujinowaki,Fujinowaki,11,,34.15,132.5,34.15,hiroshima
jp,fujiokacho,Fujiokacho,37,,35.166667,138.733333,35.166667,shizuoka
jp,fujioka,Fujioka,10,63359,36.25,139.083333,36.25,gunma
jp,fujioka,Fujioka,37,,35.166667,138.733333,35.166667,shizuoka
jp,fujioka,Fujioka,38,,36.25,139.65,36.25,tochigi
jp,fujisaka,Fujisaka,32,,34.816667,135.7,34.816667,osaka
jp,fujisaki,Fujisaki,3,,40.650833,140.491389,40.650833,aomori
jp,fujisaki,Fujisaki,44,,39.016667,139.883333,39.016667,yamagata
jp,fujisato,Fujisato,1,,35.05,136.75,35.05,aichi
jp,fujisawa,Fujisawa,14,,36.116667,140.15,36.116667,ibaraki
jp,fujisawa,Fujisawa,16,,38.866667,141.35,38.866667,iwate
jp,fujisawa,Fujisawa,19,394630,35.341944,139.47,35.341944,kanagawa
jp,fujishima,Fujishima,3,,40.583333,141.233333,40.583333,aomori
jp,fujishima,Fujishima,44,,38.766667,139.9,38.766667,yamagata
jp,fujishiro,Fujishiro,14,33149,35.916667,140.116667,35.916667,ibaraki
jp,fujita,Fujita,8,,37.866667,140.55,37.866667,fukushima
jp,fujita,Fujita,21,,32.333333,130.85,32.333333,kumamoto
jp,fujita,Fujita,31,,34.933333,133.633333,34.933333,okayama
jp,fujita,Fujita,43,,33.9,135.183333,33.9,wakayama
jp,fujitsuka,Fujitsuka,2,,39.85,138.95,39.85,akita
jp,fujitsuka,Fujitsuka,24,,38.176111,140.952778,38.176111,miyagi
jp,fujitsukahama,Fujitsukahama,29,,38.036612,139.303236,38.036612,niigata
jp,fujiuchibata,Fujiuchibata,45,,34.15,131,34.15,yamaguchi
jp,fujiwara,Fujiwara,16,,39.633333,141.958333,39.633333,iwate
jp,fujiwara,Fujiwara,28,,34.5,135.8,34.5,nara
jp,fujiwara,Fujiwara,38,,36.85,139.733333,36.85,tochigi
jp,fujiwara-kyo,Fujiwara-kyo,28,,34.5,135.8,34.5,nara
jp,fujiwara-no-kyo,Fujiwara-no-kyo,28,,34.5,135.8,34.5,nara
jp,fujizawa,Fujizawa,16,,38.866667,141.35,38.866667,iwate
jp,fujizuka hama,Fujizuka hama,29,,38.036612,139.303236,38.036612,niigata
jp,fuju,Fuju,45,,34.133333,132.188333,34.133333,yamaguchi
jp,fukabara,Fukabara,42,,36.816667,136.966667,36.816667,toyama
jp,fukabori,Fukabori,27,,32.683333,129.816667,32.683333,nagasaki
jp,fukada,Fukada,16,,40.116667,141.666667,40.116667,iwate
jp,fukae,Fukae,7,,33.5075,130.136667,33.5075,fukuoka
jp,fukae,Fukae,11,,34.3,132.3,34.3,hiroshima
jp,fukae,Fukae,13,,34.716667,135.3,34.716667,hyogo
jp,fukae,Fukae,27,,32.688056,128.841944,32.688056,nagasaki
jp,fukae,Fukae,47,,24.454103,124.194667,24.454103,okinawa
jp,fukagawa-botancho,Fukagawa-Botancho,40,,35.666667,139.8,35.666667,tokyo
jp,fukagawa-edagawacho,Fukagawa-Edagawacho,40,,35.65,139.816667,35.65,tokyo
jp,fukagawa-edakawacho,Fukagawa-Edakawacho,40,,35.65,139.816667,35.65,tokyo
jp,fukagawa-eichujimacho,Fukagawa-Eichujimacho,40,,35.666667,139.8,35.666667,tokyo
jp,fukagawa-etchujimacho,Fukagawa-Etchujimacho,40,,35.666667,139.8,35.666667,tokyo
jp,fukagawa-etchujima,Fukagawa-Etchujima,40,,35.666667,139.8,35.666667,tokyo
jp,fukagawa,Fukagawa,12,26152,43.708056,142.039167,43.708056,hokkaido
jp,fukagawa,Fukagawa,18,,30.633333,130.95,30.633333,kagoshima
jp,fukagawa-fukuzumicho,Fukagawa-Fukuzumicho,40,,35.666667,139.8,35.666667,tokyo
jp,fukagawa-hamazonocho,Fukagawa-Hamazonocho,40,,35.65,139.8,35.65,tokyo
jp,fukagawa-heikyucho,Fukagawa-Heikyucho,40,,35.666667,139.8,35.666667,tokyo
jp,fukagawa-hiraicho,Fukagawa-Hiraicho,40,,35.666667,139.816667,35.666667,tokyo
jp,fukagawa-ishijimacho,Fukagawa-Ishijimacho,40,,35.683333,139.816667,35.683333,tokyo
jp,fukagawa-kasakicho,Fukagawa-Kasakicho,40,,35.666667,139.816667,35.666667,tokyo
jp,fukagawa-kazakicho,Fukagawa-Kazakicho,40,,35.666667,139.816667,35.666667,tokyo
jp,fukagawa-kiyosumicho,Fukagawa-Kiyosumicho,40,,35.683333,139.8,35.683333,tokyo
jp,fukagawa-moricho,Fukagawa-Moricho,40,,35.683333,139.816667,35.683333,tokyo
jp,fukagawa mori-machi,Fukagawa Mori-machi,40,,35.683333,139.816667,35.683333,tokyo
jp,fukagawa-sagacho,Fukagawa-Sagacho,40,,35.683333,139.8,35.683333,tokyo
jp,fukagawa-shinonomecho,Fukagawa-Shinonomecho,40,,35.65,139.8,35.65,tokyo
jp,fukagawa-shiozakicho,Fukagawa-Shiozakicho,40,,35.666667,139.816667,35.666667,tokyo
jp,fukagawa-shirakawacho,Fukagawa-Shirakawacho,40,,35.683333,139.8,35.683333,tokyo
jp,fukagawa-susakibentencho,Fukagawa-Susakibentencho,40,,35.666667,139.816667,35.666667,tokyo
jp,fukagawa-toyocho,Fukagawa-Toyocho,40,,35.666667,139.816667,35.666667,tokyo
jp,fukagawa-toyosu,Fukagawa-Toyosu,40,,35.65,139.793333,35.65,tokyo
jp,fukago,Fukago,18,,30.633333,130.95,30.633333,kagoshima
jp,fukahara,Fukahara,42,,36.816667,136.966667,36.816667,toyama
jp,fukahori,Fukahori,27,,32.683333,129.816667,32.683333,nagasaki
jp,fukai,Fukai,2,,39.266667,140.416667,39.266667,akita
jp,fukai,Fukai,47,,24.454103,124.194667,24.454103,okinawa
jp,fukami,Fukami,15,,37.3,136.733333,37.3,ishikawa
jp,fukanomi,Fukanomi,27,,32.883333,130.1,32.883333,nagasaki
jp,fukanuma,Fukanuma,24,,38.218611,140.976111,38.218611,miyagi
jp,fukanuma,Fukanuma,44,,38.016667,140.183333,38.016667,yamagata
jp,fukase,Fukase,25,,31.633333,131.25,31.633333,miyazaki
jp,fukase,Fukase,26,,36.233333,137.966667,36.233333,nagano
jp,fukashiba,Fukashiba,14,,35.916667,140.65,35.916667,ibaraki
jp,fukashibahama,Fukashibahama,14,,35.916667,140.7,35.916667,ibaraki
jp,fukashi,Fukashi,26,,36.233333,137.966667,36.233333,nagano
jp,fukata,Fukata,16,,40.116667,141.666667,40.116667,iwate
jp,fukaumi,Fukaumi,27,,32.883333,130.1,32.883333,nagasaki
jp,fukaura,Fukaura,3,,40.633333,139.916667,40.633333,aomori
jp,fukawa,Fukawa,11,,34.483333,132.533333,34.483333,hiroshima
jp,fukawa,Fukawa,14,,35.85,140.15,35.85,ibaraki
jp,fukawa,Fukawa,35,,34.916667,136.166667,34.916667,shiga
jp,fukawa,Fukawa,45,,34.366667,131.183333,34.366667,yamaguchi
jp,fukawa-ichiba,Fukawa-ichiba,35,,34.916667,136.166667,34.916667,shiga
jp,fukaya,Fukaya,19,,35.437778,139.441944,35.437778,kanagawa
jp,fukaya,Fukaya,24,,38.470188,141.063047,38.470188,miyagi
jp,fukaya,Fukaya,34,106597,36.2,139.283333,36.2,saitama
jp,fukaye,Fukaye,27,,32.688056,128.841944,32.688056,nagasaki
jp,fukaze,Fukaze,25,,31.633333,131.25,31.633333,miyazaki
jp,fuke,Fuke,18,,31.75,130.55,31.75,kagoshima
jp,fuke,Fuke,32,,34.316667,135.15,34.316667,osaka
jp,fukei,Fukei,18,,32.166667,130.6,32.166667,kagoshima
jp,fukiage,Fukiage,34,28334,36.1,139.45,36.1,saitama
jp,fukiaicho,Fukiaicho,13,,34.7,135.2,34.7,hyogo
jp,fukiai,Fukiai,13,,34.7,135.2,34.7,hyogo
jp,fukiya,Fukiya,31,,34.866667,133.466667,34.866667,okayama
jp,fukizua,Fukizua,34,,35.989722,139.440556,35.989722,saitama
jp,fukkiura,Fukkiura,24,,38.35,141.45,38.35,miyagi
jp,fukkoshi,Fukkoshi,31,,34.5,133.5,34.5,okayama
jp,fukodzaki,Fukodzaki,27,,34.3,129.25,34.3,nagasaki
jp,fukoze,Fukoze,25,,32.083333,131.316667,32.083333,miyazaki
